[
  {
    "id": "node/6213041912",
    "name": "Club Road Clinic",
    "amenity": "clinic",
    "healthcare": "clinic",
    "region": "Greater Accra",
    "district": "Accra Metropolis",
    "lat": 5.5444776,
    "lon": -0.2063852
  },
  {
    "id": "node/9942010487",
    "name": "Tobinco Pharmacy",
    "amenity": "pharmacy",
    "healthcare": "pharmacy",
    "region": "Greater Accra",
    "district": "Accra Metropolis",
    "lat": 5.5508326,
    "lon": -0.2076851
  },
  {
    "id": "node/5150562249",
    "name": "Tudu Pharmacy",
    "amenity": "pharmacy",
    "healthcare": "pharmacy",
    "region": "Greater Accra",
    "district": "Accra Metropolis",
    "lat": 5.5530775,
    "lon": -0.2082687
  },
  {
    "id": "node/5150562248",
    "name": "SIC Bob Freeman Clinic",
    "amenity": "clinic",
    "healthcare": "clinic",
    "region": "Greater Accra",
    "district": "Accra Metropolis",
    "lat": 5.5543241,
    "lon": -0.208527
  },
  {
    "id": "node/6989588759",
    "name": null,
    "amenity": "clinic",
    "healthcare": "clinic",
    "region": "Greater Accra",
    "district": "Accra Metropolis",
    "lat": 5.5541261,
    "lon": -0.2085015
  },
  {
    "id": "way/786211189",
    "name": "Adabraka Polyclinic",
    "amenity": "hospital",
    "healthcare": "hospital",
    "region": "Greater Accra",
    "district": "Korle Klottey Municipal",
    "lat": 5.561897253846155,
    "lon": -0.20459229230769232
  },
  {
    "id": "node/5486353373",
    "name": "Ebenezer Chemist Limited",
    "amenity": "pharmacy",
    "healthcare": "pharmacy",
    "region": "Greater Accra",
    "district": "Korle Klottey Municipal",
    "lat": 5.5529127,
    "lon": -0.1995926
  },
  {
    "id": "node/6350580474",
    "name": "Grit Pharmacy",
    "amenity": "pharmacy",
    "healthcare": "pharmacy",
    "region": "Greater Accra",
    "district": "Korle Klottey Municipal",
    "lat": 5.5519379,
    "lon": -0.203977
  },
  {
    "id": "node/5755779938",
    "name": "Nyaho Medical Centre",
    "amenity": "hospital",
    "healthcare": "hospital",
    "region": "Greater Accra",
    "district": "Korle Klottey Municipal",
    "lat": 5.5514896,
    "lon": -0.2039394
  },
  {
    "id": "way/439346942",
    "name": "Civil Service Polyclinic",
    "amenity": "hospital",
    "healthcare": "hospital",
    "region": "Greater Accra",
    "district": "Korle Klottey Municipal",
    "lat": 5.551029485714287,
    "lon": -0.19603287142857143
  },
  {
    "id": "way/298260306",
    "name": "Ridge Hospital",
    "amenity": "hospital",
    "healthcare": "birthing_centre;blood_donation;hospital;pharmacy",
    "region": "Greater Accra",
    "district": "Korle Klottey Municipal",
    "lat": 5.562416166666668,
    "lon": -0.19925867777777778
  },
  {
    "id": "node/3665190017",
    "name": "Trust Specialist Hospital",
    "amenity": "doctors",
    "healthcare": "doctor",
    "region": "Greater Accra",
    "district": "Korle Klottey Municipal",
    "lat": 5.5607496,
    "lon": -0.1870794
  },
  {
    "id": "node/5128388438",
    "name": "Angola Road Chemists Limited",
    "amenity": "pharmacy",
    "healthcare": "unknown",
    "region": "Greater Accra",
    "district": "Korle Klottey Municipal",
    "lat": 5.5624183,
    "lon": -0.1873077
  },
  {
    "id": "way/879206592",
    "name": null,
    "amenity": "pharmacy",
    "healthcare": "pharmacy",
    "region": "Greater Accra",
    "district": "Korle Klottey Municipal",
    "lat": 5.561163120000001,
    "lon": -0.1851387
  },
  {
    "id": "node/5128390091",
    "name": "Anasapharma Limited",
    "amenity": "pharmacy",
    "healthcare": "pharmacy",
    "region": "Greater Accra",
    "district": "Korle Klottey Municipal",
    "lat": 5.5611257,
    "lon": -0.1851768
  },
  {
    "id": "node/2644149766",
    "name": "Ramona Clinic",
    "amenity": "clinic",
    "healthcare": "clinic",
    "region": "Greater Accra",
    "district": "Korle Klottey Municipal",
    "lat": 5.5609961,
    "lon": -0.1824485
  },
  {
    "id": "node/9795356718",
    "name": "Unicom Pharmacy",
    "amenity": "pharmacy",
    "healthcare": "pharmacy",
    "region": "Greater Accra",
    "district": "Korle Klottey Municipal",
    "lat": 5.5615008,
    "lon": -0.1820782
  },
  {
    "id": "node/6658579882",
    "name": "Jinlet",
    "amenity": "pharmacy",
    "healthcare": "pharmacy",
    "region": "Greater Accra",
    "district": "Korle Klottey Municipal",
    "lat": 5.5557694,
    "lon": -0.182857
  },
  {
    "id": "node/7308441494",
    "name": "Osu Maternity Home Hospital",
    "amenity": "hospital",
    "healthcare": "birthing_center;doctor",
    "region": "Greater Accra",
    "district": "Korle Klottey Municipal",
    "lat": 5.553747,
    "lon": -0.185228
  },
  {
    "id": "node/7213787583",
    "name": "QuasiPharma",
    "amenity": "pharmacy",
    "healthcare": "pharmacy",
    "region": "Greater Accra",
    "district": "Korle Klottey Municipal",
    "lat": 5.5526358,
    "lon": -0.1842526
  },
  {
    "id": "node/6356778208",
    "name": "Jak Pharmacy",
    "amenity": "pharmacy",
    "healthcare": "unknown",
    "region": "Greater Accra",
    "district": "Korle Klottey Municipal",
    "lat": 5.5507729,
    "lon": -0.1839564
  },
  {
    "id": "node/6700363806",
    "name": "Premium Pharmacy and Mart",
    "amenity": "pharmacy",
    "healthcare": "pharmacy",
    "region": "Greater Accra",
    "district": "Korle Klottey Municipal",
    "lat": 5.5524154,
    "lon": -0.1783399
  },
  {
    "id": "way/597939156",
    "name": "SSNIT Mother and Child",
    "amenity": "hospital",
    "healthcare": "hospital",
    "region": "Greater Accra",
    "district": "Korle Klottey Municipal",
    "lat": 5.5552,
    "lon": -0.17927563636363636
  },
  {
    "id": "way/785927801",
    "name": "VRA Hospital & Pharmacy",
    "amenity": "hospital",
    "healthcare": "hospital;pharmacy",
    "region": "Greater Accra",
    "district": "Korle Klottey Municipal",
    "lat": 5.553934440000001,
    "lon": -0.18076686
  },
  {
    "id": "way/428712574",
    "name": "Beijing Clinic",
    "amenity": "clinic",
    "healthcare": "unknown",
    "region": "Greater Accra",
    "district": "Korle Klottey Municipal",
    "lat": 5.55841028,
    "lon": -0.18014986
  },
  {
    "id": "node/4278047642",
    "name": "Lifebridge Physio Clinic",
    "amenity": "clinic",
    "healthcare": "unknown",
    "region": "Greater Accra",
    "district": "Korle Klottey Municipal",
    "lat": 5.5568986,
    "lon": -0.1784063
  },
  {
    "id": "node/5717927636",
    "name": "Lloyd's Pharmacy",
    "amenity": "pharmacy",
    "healthcare": "pharmacy",
    "region": "Greater Accra",
    "district": "Korle Klottey Municipal",
    "lat": 5.5573446,
    "lon": -0.1753128
  },
  {
    "id": "node/6356087258",
    "name": "Acheampong Specialist Clinic",
    "amenity": "clinic",
    "healthcare": "clinic",
    "region": "Greater Accra",
    "district": "Korle Klottey Municipal",
    "lat": 5.5616954,
    "lon": -0.1725763
  },
  {
    "id": "node/5321471509",
    "name": "Healthnet Clinic",
    "amenity": "clinic",
    "healthcare": "clinic",
    "region": "Greater Accra",
    "district": "Korle Klottey Municipal",
    "lat": 5.5542568,
    "lon": -0.1718348
  },
  {
    "id": "way/878905197",
    "name": "Health Style Pharmacy",
    "amenity": "pharmacy",
    "healthcare": "pharmacy",
    "region": "Greater Accra",
    "district": "Korle Klottey Municipal",
    "lat": 5.5565146499999996,
    "lon": -0.17133496666666667
  },
  {
    "id": "node/13527381056",
    "name": "Global Medical Solutions",
    "amenity": "unknown",
    "healthcare": "laboratory",
    "region": "Greater Accra",
    "district": "La Dade-Kotopon",
    "lat": 5.5558019,
    "lon": -0.1661602
  },
  {
    "id": "way/787139418",
    "name": "La General Hospital",
    "amenity": "hospital",
    "healthcare": "hospital",
    "region": "Greater Accra",
    "district": "La Dade-Kotopon",
    "lat": 5.55544805,
    "lon": -0.16653998333333334
  },
  {
    "id": "node/13527398544",
    "name": "Sibs Pharmacy Limited",
    "amenity": "pharmacy",
    "healthcare": "unknown",
    "region": "Greater Accra",
    "district": "La Dade-Kotopon",
    "lat": 5.55949,
    "lon": -0.1595029
  },
  {
    "id": "way/513108606",
    "name": "Doctors on Duty Clinic",
    "amenity": "clinic",
    "healthcare": "unknown",
    "region": "Greater Accra",
    "district": "La Dade-Kotopon",
    "lat": 5.559900357142857,
    "lon": -0.15864114285714284
  },
  {
    "id": "node/6917993313",
    "name": "Clinic Diagnostic Pharmacy",
    "amenity": "pharmacy",
    "healthcare": "unknown",
    "region": "Greater Accra",
    "district": "La Dade-Kotopon",
    "lat": 5.5580563,
    "lon": -0.1539527
  },
  {
    "id": "node/6897763704",
    "name": "La Medicare Ltd",
    "amenity": "clinic",
    "healthcare": "unknown",
    "region": "Greater Accra",
    "district": "La Dade-Kotopon",
    "lat": 5.5577702,
    "lon": -0.1555304
  },
  {
    "id": "way/786256694",
    "name": null,
    "amenity": "unknown",
    "healthcare": "hospital",
    "region": "Greater Accra",
    "district": "Kpone Katamanso",
    "lat": 5.6920516800000005,
    "lon": 0.058544399999999996
  },
  {
    "id": "node/7095401440",
    "name": null,
    "amenity": "pharmacy",
    "healthcare": "unknown",
    "region": "Greater Accra",
    "district": "Ningo/Prampram",
    "lat": 5.7570049,
    "lon": 0.0491561
  },
  {
    "id": "node/7095415507",
    "name": "Voek Pharmacy",
    "amenity": "pharmacy",
    "healthcare": "unknown",
    "region": "Greater Accra",
    "district": "Ningo/Prampram",
    "lat": 5.7617984,
    "lon": 0.0519873
  },
  {
    "id": "node/6719795485",
    "name": "pile box",
    "amenity": "pharmacy",
    "healthcare": "unknown",
    "region": "Greater Accra",
    "district": "Ningo/Prampram",
    "lat": 5.766477,
    "lon": 0.0614195
  },
  {
    "id": "node/6324846586",
    "name": "G & E Health Services",
    "amenity": "pharmacy",
    "healthcare": "unknown",
    "region": "Greater Accra",
    "district": "Ningo/Prampram",
    "lat": 5.7388639,
    "lon": 0.1022608
  },
  {
    "id": "node/7810461597",
    "name": null,
    "amenity": "pharmacy",
    "healthcare": "pharmacy",
    "region": "Greater Accra",
    "district": "Ningo/Prampram",
    "lat": 5.7176285,
    "lon": 0.126152
  },
  {
    "id": "node/7877561279",
    "name": "Dawa CHPS compound",
    "amenity": "hospital",
    "healthcare": "hospital",
    "region": "Greater Accra",
    "district": "Ningo/Prampram",
    "lat": 5.8646901,
    "lon": 0.28651
  },
  {
    "id": "way/786513575",
    "name": "Akuse Government Hospital",
    "amenity": "hospital",
    "healthcare": "hospital",
    "region": "Eastern",
    "district": "Lower Manya",
    "lat": 6.0978121375,
    "lon": 0.124962675
  },
  {
    "id": "node/9895315827",
    "name": "Ofoe's Pharmacy",
    "amenity": "pharmacy",
    "healthcare": "pharmacy",
    "region": "Eastern",
    "district": "Lower Manya",
    "lat": 6.0997977,
    "lon": 0.1262578
  },
  {
    "id": "node/9895395238",
    "name": "Pharmancy",
    "amenity": "pharmacy",
    "healthcare": "pharmacy",
    "region": "Eastern",
    "district": "Lower Manya",
    "lat": 6.1008159,
    "lon": 0.1273023
  },
  {
    "id": "node/9895395243",
    "name": "Pharmancy",
    "amenity": "pharmacy",
    "healthcare": "pharmacy",
    "region": "Eastern",
    "district": "Lower Manya",
    "lat": 6.1024164,
    "lon": 0.1273096
  },
  {
    "id": "node/11265230176",
    "name": "Torgorne Health Centre",
    "amenity": "clinic",
    "healthcare": "unknown",
    "region": "Eastern",
    "district": "Lower Manya",
    "lat": 6.1170569,
    "lon": 0.13749
  },
  {
    "id": "node/6016629538",
    "name": "Vir-Tee Pharmacy",
    "amenity": "pharmacy",
    "healthcare": "unknown",
    "region": "Eastern",
    "district": "Lower Manya",
    "lat": 6.1551823,
    "lon": 0.0607029
  },
  {
    "id": "node/11132284640",
    "name": "DC Pharmacy",
    "amenity": "pharmacy",
    "healthcare": "unknown",
    "region": "Eastern",
    "district": "Asuogyaman",
    "lat": 6.2328892,
    "lon": 0.0920081
  },
  {
    "id": "node/3802489640",
    "name": "Eric's Chemists",
    "amenity": "pharmacy",
    "healthcare": "pharmacy",
    "region": "Eastern",
    "district": "Asuogyaman",
    "lat": 6.2393408,
    "lon": 0.0922965
  },
  {
    "id": "way/786268732",
    "name": "VRA Hospital",
    "amenity": "hospital",
    "healthcare": "hospital",
    "region": "Eastern",
    "district": "Asuogyaman",
    "lat": 6.2638076611111115,
    "lon": 0.05830802222222223
  },
  {
    "id": "node/6553303372",
    "name": null,
    "amenity": "pharmacy",
    "healthcare": "unknown",
    "region": "Eastern",
    "district": "Asuogyaman",
    "lat": 6.3663386,
    "lon": 0.1838588
  },
  {
    "id": "node/5718409412",
    "name": null,
    "amenity": "pharmacy",
    "healthcare": "unknown",
    "region": "Volta",
    "district": "North Tongu",
    "lat": 6.0269096,
    "lon": 0.3754811
  },
  {
    "id": "node/12313457563",
    "name": "Hospital Bungalow",
    "amenity": "hospital",
    "healthcare": "hospital",
    "region": "Volta",
    "district": "North Tongu",
    "lat": 6.0676308,
    "lon": 0.4005722
  },
  {
    "id": "node/8969008842",
    "name": "Mafi Fiekpe Chps Compound",
    "amenity": "health_post",
    "healthcare": "yes",
    "region": "Volta",
    "district": "Central Tongu",
    "lat": 6.2571906,
    "lon": 0.4750219
  },
  {
    "id": "node/8968985700",
    "name": "Mafi Seva Chps Compound",
    "amenity": "health_post",
    "healthcare": "yes",
    "region": "Volta",
    "district": "Central Tongu",
    "lat": 6.199817,
    "lon": 0.5036728
  },
  {
    "id": "node/8969018081",
    "name": "Mafi Zongo Chps Compound",
    "amenity": "health_post",
    "healthcare": "yes",
    "region": "Volta",
    "district": "Central Tongu",
    "lat": 6.2220006,
    "lon": 0.5145028
  },
  {
    "id": "node/8969009505",
    "name": "Mawuekpor Chps Compound",
    "amenity": "health_post",
    "healthcare": "yes",
    "region": "Volta",
    "district": "Central Tongu",
    "lat": 6.1974772,
    "lon": 0.5503533
  },
  {
    "id": "node/8969012905",
    "name": "Mafi Agoe Chps",
    "amenity": "health_post",
    "healthcare": "yes",
    "region": "Volta",
    "district": "Central Tongu",
    "lat": 6.26482,
    "lon": 0.5176217
  },
  {
    "id": "node/7566448586",
    "name": "Adaklu Ahunda Health Centre",
    "amenity": "clinic",
    "healthcare": "unknown",
    "region": "Volta",
    "district": "Central Tongu",
    "lat": 6.2884718,
    "lon": 0.5447816
  },
  {
    "id": "node/8564385285",
    "name": "Adaklu Ablornu CHPs Compound",
    "amenity": "unknown",
    "healthcare": "yes",
    "region": "Volta",
    "district": "Adaklu",
    "lat": 6.3488205,
    "lon": 0.6367137
  },
  {
    "id": "node/8968985702",
    "name": "Mafi Sasekpe HC",
    "amenity": "health_post",
    "healthcare": "yes",
    "region": "Volta",
    "district": "Central Tongu",
    "lat": 6.2758204,
    "lon": 0.6145731
  },
  {
    "id": "way/1032049032",
    "name": "Makstec Clinic",
    "amenity": "health_post",
    "healthcare": "yes",
    "region": "Volta",
    "district": "Central Tongu",
    "lat": 6.279169938461537,
    "lon": 0.5699071461538462
  },
  {
    "id": "node/8969020088",
    "name": "Mafi Kumase Health Centre",
    "amenity": "health_post",
    "healthcare": "yes",
    "region": "Volta",
    "district": "Central Tongu",
    "lat": 6.2754821,
    "lon": 0.5713035
  },
  {
    "id": "node/8968995313",
    "name": "Mafi Adalekpoe Clinic",
    "amenity": "health_post",
    "healthcare": "yes",
    "region": "Volta",
    "district": "Central Tongu",
    "lat": 6.2395001,
    "lon": 0.5886726
  },
  {
    "id": "node/8979649404",
    "name": "Mafi Avedo Chps Compound",
    "amenity": "health_post",
    "healthcare": "yes",
    "region": "Volta",
    "district": "Central Tongu",
    "lat": 6.1336766,
    "lon": 0.6368676
  },
  {
    "id": "node/8979638860",
    "name": "Mafi Tove Chps Compound",
    "amenity": "health_post",
    "healthcare": "yes",
    "region": "Volta",
    "district": "South Tongu",
    "lat": 6.1092918,
    "lon": 0.6127773
  },
  {
    "id": "node/8979607895",
    "name": "Mafi Anfoe Chps Compound",
    "amenity": "health_post",
    "healthcare": "yes",
    "region": "Volta",
    "district": "Central Tongu",
    "lat": 6.1484523,
    "lon": 0.5415018
  },
  {
    "id": "node/8979649623",
    "name": "Dekpoe Chps Compound",
    "amenity": "health_post",
    "healthcare": "yes",
    "region": "Volta",
    "district": "Central Tongu",
    "lat": 6.1269822,
    "lon": 0.4940932
  },
  {
    "id": "node/8979595011",
    "name": "Adisec Clinic",
    "amenity": "health_post",
    "healthcare": "yes",
    "region": "Volta",
    "district": "Central Tongu",
    "lat": 6.094146,
    "lon": 0.5059985
  },
  {
    "id": "node/8979605646",
    "name": "New Bakpa Chps Compound",
    "amenity": "health_post",
    "healthcare": "yes",
    "region": "Volta",
    "district": "Central Tongu",
    "lat": 6.0510723,
    "lon": 0.5400686
  },
  {
    "id": "way/970442689",
    "name": "Adidome Hospital",
    "amenity": "hospital",
    "healthcare": "unknown",
    "region": "Volta",
    "district": "Central Tongu",
    "lat": 6.072715085714286,
    "lon": 0.4977866142857143
  },
  {
    "id": "node/8986141401",
    "name": "Kpotame Health Centre",
    "amenity": "health_post",
    "healthcare": "yes",
    "region": "Volta",
    "district": "South Tongu",
    "lat": 5.9766659,
    "lon": 0.5257036
  },
  {
    "id": "node/8986148774",
    "name": "Sokpoe Chps Compound",
    "amenity": "health_post",
    "healthcare": "yes",
    "region": "Volta",
    "district": "South Tongu",
    "lat": 5.9923146,
    "lon": 0.579853
  },
  {
    "id": "node/8986168307",
    "name": "Sogasco Sick Bay",
    "amenity": "health_post",
    "healthcare": "yes",
    "region": "Volta",
    "district": "South Tongu",
    "lat": 5.9916278,
    "lon": 0.6014647
  },
  {
    "id": "node/5087710549",
    "name": "Jeb Pharmacy",
    "amenity": "pharmacy",
    "healthcare": "pharmacy",
    "region": "Volta",
    "district": "South Tongu",
    "lat": 5.9993222,
    "lon": 0.597146
  },
  {
    "id": "node/6037962463",
    "name": "Adepharma Limited - Wholesale Only",
    "amenity": "pharmacy",
    "healthcare": "pharmacy",
    "region": "Volta",
    "district": "South Tongu",
    "lat": 5.9991558,
    "lon": 0.5960627
  },
  {
    "id": "node/5087711022",
    "name": null,
    "amenity": "pharmacy",
    "healthcare": "pharmacy",
    "region": "Volta",
    "district": "South Tongu",
    "lat": 5.9986489,
    "lon": 0.5951591
  },
  {
    "id": "way/786595766",
    "name": "Comboni Hospital",
    "amenity": "hospital",
    "healthcare": "hospital",
    "region": "Volta",
    "district": "South Tongu",
    "lat": 6.0025220125,
    "lon": 0.5850592499999999
  },
  {
    "id": "node/7315829926",
    "name": "Pharmatrust Professional college",
    "amenity": "pharmacy",
    "healthcare": "pharmacy",
    "region": "Greater Accra",
    "district": "Weija Gbawe Municipal",
    "lat": 5.552842,
    "lon": -0.3430429
  },
  {
    "id": "node/5759607065",
    "name": null,
    "amenity": "pharmacy",
    "healthcare": "unknown",
    "region": "Greater Accra",
    "district": "Weija Gbawe Municipal",
    "lat": 5.5555436,
    "lon": -0.3400994
  },
  {
    "id": "node/5759224255",
    "name": null,
    "amenity": "pharmacy",
    "healthcare": "unknown",
    "region": "Greater Accra",
    "district": "Weija Gbawe Municipal",
    "lat": 5.5477393,
    "lon": -0.3390086
  },
  {
    "id": "node/10253328347",
    "name": "Sonotech Medical Center",
    "amenity": "clinic",
    "healthcare": "clinic",
    "region": "Greater Accra",
    "district": "Weija Gbawe Municipal",
    "lat": 5.5452872,
    "lon": -0.3447896
  },
  {
    "id": "node/6312866084",
    "name": "All Faith Clinic",
    "amenity": "clinic",
    "healthcare": "clinic",
    "region": "Greater Accra",
    "district": "Weija Gbawe Municipal",
    "lat": 5.5429511,
    "lon": -0.3350059
  },
  {
    "id": "node/9738244761",
    "name": "Select",
    "amenity": "pharmacy",
    "healthcare": "unknown",
    "region": "Greater Accra",
    "district": "Weija Gbawe Municipal",
    "lat": 5.5516399,
    "lon": -0.3294584
  },
  {
    "id": "node/7777502131",
    "name": null,
    "amenity": "hospital",
    "healthcare": "unknown",
    "region": "Greater Accra",
    "district": "Weija Gbawe Municipal",
    "lat": 5.5534886,
    "lon": -0.3232397
  },
  {
    "id": "node/7775836840",
    "name": "Accra West Medical Centre",
    "amenity": "hospital",
    "healthcare": "unknown",
    "region": "Greater Accra",
    "district": "Weija Gbawe Municipal",
    "lat": 5.5463886,
    "lon": -0.3262091
  },
  {
    "id": "node/7775821111",
    "name": "Hilton Chemist Limited",
    "amenity": "pharmacy",
    "healthcare": "unknown",
    "region": "Greater Accra",
    "district": "Weija Gbawe Municipal",
    "lat": 5.5445586,
    "lon": -0.3257399
  },
  {
    "id": "node/7775302897",
    "name": "Fountain Spring Pharmacy",
    "amenity": "pharmacy",
    "healthcare": "unknown",
    "region": "Greater Accra",
    "district": "Weija Gbawe Municipal",
    "lat": 5.5384567,
    "lon": -0.3258978
  },
  {
    "id": "node/7775299415",
    "name": null,
    "amenity": "pharmacy",
    "healthcare": "unknown",
    "region": "Greater Accra",
    "district": "Weija Gbawe Municipal",
    "lat": 5.5314928,
    "lon": -0.3245533
  },
  {
    "id": "node/7775290904",
    "name": "Claks Mosk Chemist",
    "amenity": "pharmacy",
    "healthcare": "unknown",
    "region": "Greater Accra",
    "district": "Weija Gbawe Municipal",
    "lat": 5.5204002,
    "lon": -0.3279806
  },
  {
    "id": "node/7775289597",
    "name": "McCarthy Hill Pharmacy",
    "amenity": "pharmacy",
    "healthcare": "unknown",
    "region": "Greater Accra",
    "district": "Weija Gbawe Municipal",
    "lat": 5.5235273,
    "lon": -0.326914
  },
  {
    "id": "node/7775298236",
    "name": "Licensed Over the Counter",
    "amenity": "pharmacy",
    "healthcare": "unknown",
    "region": "Greater Accra",
    "district": "Weija Gbawe Municipal",
    "lat": 5.5110248,
    "lon": -0.3352112
  },
  {
    "id": "node/7775298756",
    "name": "Rejoice Sename",
    "amenity": "pharmacy",
    "healthcare": "unknown",
    "region": "Greater Accra",
    "district": "Weija Gbawe Municipal",
    "lat": 5.5086452,
    "lon": -0.3366135
  },
  {
    "id": "node/7775284579",
    "name": "Veronica Sasah",
    "amenity": "pharmacy",
    "healthcare": "unknown",
    "region": "Greater Accra",
    "district": "Weija Gbawe Municipal",
    "lat": 5.5091696,
    "lon": -0.3377949
  },
  {
    "id": "way/672444403",
    "name": "Gewah Hospital",
    "amenity": "hospital",
    "healthcare": "unknown",
    "region": "Greater Accra",
    "district": "Weija Gbawe Municipal",
    "lat": 5.56167,
    "lon": -0.3100504333333334
  },
  {
    "id": "node/7775772659",
    "name": "Delivery Chemist",
    "amenity": "pharmacy",
    "healthcare": "unknown",
    "region": "Greater Accra",
    "district": "Weija Gbawe Municipal",
    "lat": 5.5546582,
    "lon": -0.3082233
  },
  {
    "id": "way/625801430",
    "name": "Oblogo Health Centre",
    "amenity": "clinic",
    "healthcare": "unknown",
    "region": "Greater Accra",
    "district": "Weija Gbawe Municipal",
    "lat": 5.5581680076923075,
    "lon": -0.30647056153846153
  },
  {
    "id": "node/6420471671",
    "name": "Kafny Pharmacy",
    "amenity": "pharmacy",
    "healthcare": "unknown",
    "region": "Greater Accra",
    "district": "Weija Gbawe Municipal",
    "lat": 5.5572969,
    "lon": -0.3058845
  },
  {
    "id": "way/672670915",
    "name": "Advance Body Sculpture",
    "amenity": "hospital",
    "healthcare": "unknown",
    "region": "Greater Accra",
    "district": "Weija Gbawe Municipal",
    "lat": 5.556151899999999,
    "lon": -0.30422533999999996
  },
  {
    "id": "node/9738271925",
    "name": null,
    "amenity": "pharmacy",
    "healthcare": "unknown",
    "region": "Greater Accra",
    "district": "Weija Gbawe Municipal",
    "lat": 5.5559561,
    "lon": -0.3045522
  },
  {
    "id": "node/2026403692",
    "name": "Westlife Pharmacy",
    "amenity": "pharmacy",
    "healthcare": "unknown",
    "region": "Greater Accra",
    "district": "Ablekuma West Municipal",
    "lat": 5.5289082,
    "lon": -0.2643292
  },
  {
    "id": "node/5287626001",
    "name": "Kaizen Pharma Limited",
    "amenity": "pharmacy",
    "healthcare": "unknown",
    "region": "Greater Accra",
    "district": "Ablekuma North Municipal",
    "lat": 5.5526814,
    "lon": -0.2720462
  },
  {
    "id": "node/5287626004",
    "name": "Fidelity Pharmacy",
    "amenity": "pharmacy",
    "healthcare": "unknown",
    "region": "Greater Accra",
    "district": "Ablekuma North Municipal",
    "lat": 5.5577586,
    "lon": -0.2691806
  },
  {
    "id": "node/2574744949",
    "name": "Unicom Chemist Limited",
    "amenity": "pharmacy",
    "healthcare": "unknown",
    "region": "Greater Accra",
    "district": "Ablekuma North Municipal",
    "lat": 5.5592037,
    "lon": -0.2652905
  },
  {
    "id": "way/1461318436",
    "name": "New Life Homeopathic Clinic",
    "amenity": "clinic",
    "healthcare": "clinic",
    "region": "Greater Accra",
    "district": "Ablekuma North Municipal",
    "lat": 5.55524172,
    "lon": -0.2670612
  },
  {
    "id": "way/787118973",
    "name": "Nyameadom Maternity Home",
    "amenity": "hospital",
    "healthcare": "hospital",
    "region": "Greater Accra",
    "district": "Ablekuma North Municipal",
    "lat": 5.551913566666666,
    "lon": -0.26434085
  },
  {
    "id": "way/787121870",
    "name": "Dr. Beecham's Central Dansoman Clinic",
    "amenity": "hospital",
    "healthcare": "hospital",
    "region": "Greater Accra",
    "district": "Ablekuma Central Municipal",
    "lat": 5.552247839999999,
    "lon": -0.26224549999999996
  },
  {
    "id": "node/4443298689",
    "name": "Dansoman polyclinic",
    "amenity": "clinic",
    "healthcare": "unknown",
    "region": "Greater Accra",
    "district": "Ablekuma Central Municipal",
    "lat": 5.5610799,
    "lon": -0.2600791
  },
  {
    "id": "node/8572607019",
    "name": null,
    "amenity": "pharmacy",
    "healthcare": "unknown",
    "region": "Greater Accra",
    "district": "Ablekuma Central Municipal",
    "lat": 5.5389859,
    "lon": -0.248778
  },
  {
    "id": "node/8572611717",
    "name": "Herbal",
    "amenity": "pharmacy",
    "healthcare": "unknown",
    "region": "Greater Accra",
    "district": "Ablekuma Central Municipal",
    "lat": 5.5392549,
    "lon": -0.2469824
  },
  {
    "id": "way/192082873",
    "name": "Karikari Brobbey Hospital",
    "amenity": "hospital",
    "healthcare": "unknown",
    "region": "Greater Accra",
    "district": "Ablekuma West Municipal",
    "lat": 5.53108836,
    "lon": -0.2616325199999999
  },
  {
    "id": "node/2026403682",
    "name": "Day and Night Pharmacy",
    "amenity": "pharmacy",
    "healthcare": "unknown",
    "region": "Greater Accra",
    "district": "Ablekuma West Municipal",
    "lat": 5.5302943,
    "lon": -0.26273
  },
  {
    "id": "way/192082879",
    "name": "Zaclex Maternity Home",
    "amenity": "clinic",
    "healthcare": "unknown",
    "region": "Greater Accra",
    "district": "Ablekuma West Municipal",
    "lat": 5.52860072,
    "lon": -0.26387752000000003
  },
  {
    "id": "node/11925670069",
    "name": "Synlab Medical Laboratory",
    "amenity": "unknown",
    "healthcare": "laboratory",
    "region": "Greater Accra",
    "district": "Ablekuma West Municipal",
    "lat": 5.5357744,
    "lon": -0.2276164
  },
  {
    "id": "node/7629520511",
    "name": null,
    "amenity": "pharmacy",
    "healthcare": "pharmacy",
    "region": "Greater Accra",
    "district": "Ablekuma West Municipal",
    "lat": 5.5356032,
    "lon": -0.2284627
  },
  {
    "id": "node/7629520515",
    "name": "MDS-Lancet",
    "amenity": "unknown",
    "healthcare": "laboratory",
    "region": "Greater Accra",
    "district": "Ablekuma West Municipal",
    "lat": 5.5356079,
    "lon": -0.2284102
  },
  {
    "id": "node/11082706568",
    "name": "Scanport Healthcare and Medical Imaging",
    "amenity": "hospital",
    "healthcare": "hospital",
    "region": "Greater Accra",
    "district": "Ablekuma Central Municipal",
    "lat": 5.5328819,
    "lon": -0.2372229
  },
  {
    "id": "node/8868150633",
    "name": "Adowa Boatemaa Memorial Clinic",
    "amenity": "clinic",
    "healthcare": "unknown",
    "region": "Greater Accra",
    "district": "Ablekuma Central Municipal",
    "lat": 5.5330576,
    "lon": -0.2373638
  },
  {
    "id": "way/965030706",
    "name": "Mamprobi Hospital",
    "amenity": "hospital",
    "healthcare": "unknown",
    "region": "Greater Accra",
    "district": "Ablekuma Central Municipal",
    "lat": 5.538198899999999,
    "lon": -0.2455946
  },
  {
    "id": "way/786508246",
    "name": "Barnor Hospital",
    "amenity": "hospital",
    "healthcare": "hospital",
    "region": "Greater Accra",
    "district": "Ablekuma Central Municipal",
    "lat": 5.54931098,
    "lon": -0.24115071999999999
  },
  {
    "id": "way/788122226",
    "name": "Armah Memorial",
    "amenity": "hospital",
    "healthcare": "hospital",
    "region": "Greater Accra",
    "district": "Ablekuma Central Municipal",
    "lat": 5.55844508,
    "lon": -0.24339696000000002
  },
  {
    "id": "node/6974715277",
    "name": "AnsaPharma",
    "amenity": "pharmacy",
    "healthcare": "unknown",
    "region": "Greater Accra",
    "district": "Ablekuma Central Municipal",
    "lat": 5.5491314,
    "lon": -0.2298996
  },
  {
    "id": "way/980615152",
    "name": "Dialysis Center",
    "amenity": "clinic",
    "healthcare": "clinic",
    "region": "Greater Accra",
    "district": "Ablekuma West Municipal",
    "lat": 5.5422252307692315,
    "lon": -0.2291852153846154
  },
  {
    "id": "way/980616603",
    "name": "Urology and Nephrology Centre of Excellence",
    "amenity": "clinic",
    "healthcare": "clinic",
    "region": "Greater Accra",
    "district": "Ablekuma West Municipal",
    "lat": 5.541754891666667,
    "lon": -0.2284883333333333
  },
  {
    "id": "way/303162760",
    "name": "Korle Bu Teaching Hospital",
    "amenity": "hospital",
    "healthcare": "birthing_center;dentist;doctor;hospital;laboratory;optometrist;pharmacy;physiotherapist",
    "region": "Greater Accra",
    "district": "Ablekuma West Municipal",
    "lat": 5.53762545,
    "lon": -0.2261675708333333
  },
  {
    "id": "way/298258033",
    "name": "Korle Bu Policlinic",
    "amenity": "hospital",
    "healthcare": "unknown",
    "region": "Greater Accra",
    "district": "Ablekuma West Municipal",
    "lat": 5.5381452125,
    "lon": -0.2235326125
  },
  {
    "id": "node/5331310697",
    "name": null,
    "amenity": "pharmacy",
    "healthcare": "unknown",
    "region": "Greater Accra",
    "district": "Accra Metropolis",
    "lat": 5.5593212,
    "lon": -0.2226058
  },
  {
    "id": "node/4430009890",
    "name": "Starwin Products Ltd",
    "amenity": "pharmacy",
    "healthcare": "unknown",
    "region": "Greater Accra",
    "district": "Accra Metropolis",
    "lat": 5.5589459,
    "lon": -0.2227967
  },
  {
    "id": "node/7211660772",
    "name": "Letap pharmacy",
    "amenity": "pharmacy",
    "healthcare": "unknown",
    "region": "Greater Accra",
    "district": "Accra Metropolis",
    "lat": 5.5570022,
    "lon": -0.2194593
  },
  {
    "id": "node/7091233013",
    "name": "White Tower",
    "amenity": "pharmacy",
    "healthcare": "unknown",
    "region": "Greater Accra",
    "district": "Accra Metropolis",
    "lat": 5.5611214,
    "lon": -0.2152962
  },
  {
    "id": "node/7727444139",
    "name": null,
    "amenity": "hospital",
    "healthcare": "unknown",
    "region": "Greater Accra",
    "district": "Accra Metropolis",
    "lat": 5.561609,
    "lon": -0.2141144
  },
  {
    "id": "node/8976806587",
    "name": "Atta Quarshie Merton Memorial Hospital",
    "amenity": "hospital",
    "healthcare": "unknown",
    "region": "Greater Accra",
    "district": "Accra Metropolis",
    "lat": 5.5619488,
    "lon": -0.2137769
  },
  {
    "id": "node/7162116722",
    "name": "Kelmed Pharmaceuticals",
    "amenity": "pharmacy",
    "healthcare": "unknown",
    "region": "Greater Accra",
    "district": "Accra Metropolis",
    "lat": 5.5616135,
    "lon": -0.2136577
  },
  {
    "id": "node/1405374124",
    "name": "Odorna Medical Center",
    "amenity": "clinic",
    "healthcare": "unknown",
    "region": "Greater Accra",
    "district": "Accra Metropolis",
    "lat": 5.5590844,
    "lon": -0.2156089
  },
  {
    "id": "node/6305321317",
    "name": "Osons Chemist",
    "amenity": "pharmacy",
    "healthcare": "unknown",
    "region": "Greater Accra",
    "district": "Accra Metropolis",
    "lat": 5.5601699,
    "lon": -0.2129584
  },
  {
    "id": "way/788124254",
    "name": "C&J Medicare Hospital",
    "amenity": "hospital",
    "healthcare": "clinic;doctor;hospital;laboratory",
    "region": "Greater Accra",
    "district": "Accra Metropolis",
    "lat": 5.55355848,
    "lon": -0.21008074
  },
  {
    "id": "node/5150562247",
    "name": "Frontline Pharmacy",
    "amenity": "pharmacy",
    "healthcare": "pharmacy",
    "region": "Greater Accra",
    "district": "Accra Metropolis",
    "lat": 5.555221,
    "lon": -0.2114779
  },
  {
    "id": "node/4430018890",
    "name": "Pharmacy Council &National Drug",
    "amenity": "pharmacy",
    "healthcare": "pharmacy",
    "region": "Greater Accra",
    "district": "Accra Metropolis",
    "lat": 5.55204,
    "lon": -0.2111612
  },
  {
    "id": "node/4429993095",
    "name": "Medical & Dental Council Ghana",
    "amenity": "clinic",
    "healthcare": "clinic",
    "region": "Greater Accra",
    "district": "Accra Metropolis",
    "lat": 5.5523517,
    "lon": -0.2112043
  },
  {
    "id": "node/7296409694",
    "name": "Baseline",
    "amenity": "pharmacy",
    "healthcare": "pharmacy",
    "region": "Greater Accra",
    "district": "Accra Metropolis",
    "lat": 5.5518135,
    "lon": -0.2096227
  },
  {
    "id": "node/4270160491",
    "name": "J M Addo and sons ltd.",
    "amenity": "pharmacy",
    "healthcare": "pharmacy",
    "region": "Greater Accra",
    "district": "Accra Metropolis",
    "lat": 5.5490035,
    "lon": -0.2088607
  },
  {
    "id": "node/12726535802",
    "name": "Aseda Nka Nyame Pharmacy",
    "amenity": "pharmacy",
    "healthcare": "unknown",
    "region": "Greater Accra",
    "district": "Accra Metropolis",
    "lat": 5.548129,
    "lon": -0.2091956
  },
  {
    "id": "node/12726535701",
    "name": "Achesta Pharmaceutical",
    "amenity": "pharmacy",
    "healthcare": "unknown",
    "region": "Greater Accra",
    "district": "Accra Metropolis",
    "lat": 5.5481009,
    "lon": -0.2091823
  },
  {
    "id": "node/12726535801",
    "name": "Jaspers Pharmacy Limited",
    "amenity": "pharmacy",
    "healthcare": "unknown",
    "region": "Greater Accra",
    "district": "Accra Metropolis",
    "lat": 5.5480688,
    "lon": -0.2091807
  },
  {
    "id": "node/11281141572",
    "name": "Biakoye",
    "amenity": "pharmacy",
    "healthcare": "pharmacy",
    "region": "Greater Accra",
    "district": "Accra Metropolis",
    "lat": 5.5482459,
    "lon": -0.2092645
  },
  {
    "id": "node/11768804570",
    "name": null,
    "amenity": "pharmacy",
    "healthcare": "unknown",
    "region": "Greater Accra",
    "district": "Accra Metropolis",
    "lat": 5.5484121,
    "lon": -0.2093946
  },
  {
    "id": "node/7727437261",
    "name": "Baseline",
    "amenity": "pharmacy",
    "healthcare": "pharmacy",
    "region": "Greater Accra",
    "district": "Accra Metropolis",
    "lat": 5.5469989,
    "lon": -0.2099842
  },
  {
    "id": "way/316141751",
    "name": "Princess Marie Louie Children's Hospital",
    "amenity": "hospital",
    "healthcare": "hospital",
    "region": "Greater Accra",
    "district": "Accra Metropolis",
    "lat": 5.5445761000000005,
    "lon": -0.2131533
  },
  {
    "id": "node/6215799885",
    "name": "Hills Pharmacy",
    "amenity": "pharmacy",
    "healthcare": "unknown",
    "region": "Greater Accra",
    "district": "Accra Metropolis",
    "lat": 5.5452885,
    "lon": -0.2125989
  },
  {
    "id": "node/6218840085",
    "name": "Syrene Health Services",
    "amenity": "pharmacy",
    "healthcare": "unknown",
    "region": "Greater Accra",
    "district": "Accra Metropolis",
    "lat": 5.5446575,
    "lon": -0.213842
  },
  {
    "id": "node/8953954351",
    "name": "James Town Usher Clinic",
    "amenity": "clinic",
    "healthcare": "unknown",
    "region": "Greater Accra",
    "district": "Accra Metropolis",
    "lat": 5.5403333,
    "lon": -0.2129899
  },
  {
    "id": "node/7211393385",
    "name": "M&G Pharmaceuticals",
    "amenity": "pharmacy",
    "healthcare": "unknown",
    "region": "Greater Accra",
    "district": "Accra Metropolis",
    "lat": 5.5348169,
    "lon": -0.2113248
  },
  {
    "id": "node/7211448645",
    "name": "M&G whole sale division",
    "amenity": "pharmacy",
    "healthcare": "unknown",
    "region": "Greater Accra",
    "district": "Accra Metropolis",
    "lat": 5.5351294,
    "lon": -0.2111438
  },
  {
    "id": "node/6380664285",
    "name": null,
    "amenity": "pharmacy",
    "healthcare": "unknown",
    "region": "Greater Accra",
    "district": "Ablekuma West Municipal",
    "lat": 5.5364635,
    "lon": -0.2213445
  },
  {
    "id": "way/546664075",
    "name": "Cathedral Clinic and Lab Limited",
    "amenity": "clinic",
    "healthcare": "clinic",
    "region": "Greater Accra",
    "district": "Accra Metropolis",
    "lat": 5.53949082857143,
    "lon": -0.20777052857142858
  },
  {
    "id": "node/9929446917",
    "name": "Benzu Pharmacy",
    "amenity": "pharmacy",
    "healthcare": "unknown",
    "region": "Upper East",
    "district": "Kasena Nankana East",
    "lat": 10.8723152,
    "lon": -1.0803368
  },
  {
    "id": "node/9489482983",
    "name": "Labs",
    "amenity": "unknown",
    "healthcare": "laboratory",
    "region": "Upper East",
    "district": "Kasena Nankana East",
    "lat": 10.8681197,
    "lon": -1.076654
  },
  {
    "id": "node/13739999948",
    "name": "BACH PHARMACY LIMITED",
    "amenity": "pharmacy",
    "healthcare": "pharmacy",
    "region": "Upper East",
    "district": "Kasena Nankana East",
    "lat": 10.8946404,
    "lon": -1.0836509
  },
  {
    "id": "node/9925608517",
    "name": null,
    "amenity": "pharmacy",
    "healthcare": "pharmacy",
    "region": "Upper East",
    "district": "Kasena Nankana East",
    "lat": 10.8912898,
    "lon": -1.0878627
  },
  {
    "id": "node/2306715205",
    "name": "Bencyn Pharmacy",
    "amenity": "pharmacy",
    "healthcare": "pharmacy",
    "region": "Upper East",
    "district": "Kasena Nankana East",
    "lat": 10.8903945,
    "lon": -1.0877145
  },
  {
    "id": "node/9925587817",
    "name": "At Jude Clinic",
    "amenity": "clinic",
    "healthcare": "clinic",
    "region": "Upper East",
    "district": "Kasena Nankana East",
    "lat": 10.8941505,
    "lon": -1.0885918
  },
  {
    "id": "node/6542893585",
    "name": null,
    "amenity": "pharmacy",
    "healthcare": "pharmacy",
    "region": "Upper East",
    "district": "Kasena Nankana East",
    "lat": 10.9043434,
    "lon": -1.091216
  },
  {
    "id": "node/8180022975",
    "name": "Saboro Vertinary Centre",
    "amenity": "unknown",
    "healthcare": "yes",
    "region": "Upper East",
    "district": "Kasena Nankana East",
    "lat": 10.909332,
    "lon": -1.0941124
  },
  {
    "id": "node/6542893588",
    "name": "Okam",
    "amenity": "pharmacy",
    "healthcare": "pharmacy",
    "region": "Upper East",
    "district": "Kasena Nankana West",
    "lat": 10.9795656,
    "lon": -1.1057123
  },
  {
    "id": "node/13630002240",
    "name": "Paga District Hospital",
    "amenity": "unknown",
    "healthcare": "hospital",
    "region": "Upper East",
    "district": "Kasena Nankana West",
    "lat": 10.9704923,
    "lon": -1.1009057
  },
  {
    "id": "node/13508530401",
    "name": "CHPS Gonum",
    "amenity": "clinic",
    "healthcare": "unknown",
    "region": "Upper East",
    "district": "Kasena Nankana West",
    "lat": 10.920852,
    "lon": -1.0050586
  },
  {
    "id": "node/13506840901",
    "name": "Naboro Health Centre",
    "amenity": "clinic",
    "healthcare": "unknown",
    "region": "Upper East",
    "district": "Kasena Nankana West",
    "lat": 10.9323625,
    "lon": -0.9784818
  },
  {
    "id": "way/823988425",
    "name": "Kassena-Nankana East Health Centre",
    "amenity": "unknown",
    "healthcare": "yes",
    "region": "Upper East",
    "district": "Kasena Nankana West",
    "lat": 10.926044922222223,
    "lon": -0.9578922111111111
  },
  {
    "id": "way/823988424",
    "name": "Kassena-Nankana East Health Centre",
    "amenity": "unknown",
    "healthcare": "yes",
    "region": "Upper East",
    "district": "Kasena Nankana West",
    "lat": 10.925995828571429,
    "lon": -0.9576132285714285
  },
  {
    "id": "way/823988428",
    "name": null,
    "amenity": "unknown",
    "healthcare": "health_post",
    "region": "Upper East",
    "district": "Kasena Nankana West",
    "lat": 10.92563152,
    "lon": -0.95747228
  },
  {
    "id": "way/435648923",
    "name": "Namoo Clinic",
    "amenity": "clinic",
    "healthcare": "clinic",
    "region": "Upper East",
    "district": "Bongo",
    "lat": 10.968647533333332,
    "lon": -0.8477852222222222
  },
  {
    "id": "way/700487786",
    "name": "Zuarungu Health Centre",
    "amenity": "clinic",
    "healthcare": "clinic",
    "region": "Upper East",
    "district": "Bolga  East",
    "lat": 10.7914539,
    "lon": -0.7939784333333333
  },
  {
    "id": "way/725256380",
    "name": null,
    "amenity": "pharmacy",
    "healthcare": "pharmacy",
    "region": "Upper East",
    "district": "Bolga  East",
    "lat": 10.79159334,
    "lon": -0.79255148
  },
  {
    "id": "way/725256413",
    "name": "Collins Owusu-Ansah",
    "amenity": "pharmacy",
    "healthcare": "pharmacy",
    "region": "Upper East",
    "district": "Bolga  East",
    "lat": 10.79177642,
    "lon": -0.7918296199999999
  },
  {
    "id": "node/6916218475",
    "name": "Madam Marry Adekurah",
    "amenity": "pharmacy",
    "healthcare": "pharmacy",
    "region": "Upper East",
    "district": "Bolga  East",
    "lat": 10.7915153,
    "lon": -0.791633
  },
  {
    "id": "node/6916520654",
    "name": "Zonno Chps",
    "amenity": "clinic",
    "healthcare": "clinic",
    "region": "Upper East",
    "district": "Bolga  East",
    "lat": 10.782864,
    "lon": -0.7817848
  },
  {
    "id": "node/8900383610",
    "name": null,
    "amenity": "pharmacy",
    "healthcare": "pharmacy",
    "region": "Upper East",
    "district": "Bolga  East",
    "lat": 10.7841309,
    "lon": -0.8014749
  },
  {
    "id": "node/8900383609",
    "name": null,
    "amenity": "pharmacy",
    "healthcare": "pharmacy",
    "region": "Upper East",
    "district": "Bolga  East",
    "lat": 10.7871975,
    "lon": -0.8144192
  },
  {
    "id": "node/6853284073",
    "name": "Cecilia S. Azabu",
    "amenity": "pharmacy",
    "healthcare": "pharmacy",
    "region": "Upper East",
    "district": "Bolga  East",
    "lat": 10.78719,
    "lon": -0.8287724
  },
  {
    "id": "way/761176940",
    "name": "Talensi District Hospital",
    "amenity": "hospital",
    "healthcare": "hospital",
    "region": "Upper East",
    "district": "Talensi",
    "lat": 10.714288727272727,
    "lon": -0.7941071727272728
  },
  {
    "id": "way/758884551",
    "name": "Kpatia",
    "amenity": "clinic",
    "healthcare": "unknown",
    "region": "Upper East",
    "district": "Talensi",
    "lat": 10.7619807,
    "lon": -0.7498182600000001
  },
  {
    "id": "node/5349015829",
    "name": "Duusi CHPS Compound",
    "amenity": "clinic",
    "healthcare": "clinic",
    "region": "Upper East",
    "district": "Talensi",
    "lat": 10.7792563,
    "lon": -0.6931646
  },
  {
    "id": "node/7086685099",
    "name": "Namolgo Clinic",
    "amenity": "clinic",
    "healthcare": "clinic",
    "region": "Upper East",
    "district": "Talensi",
    "lat": 10.7373492,
    "lon": -0.7213148
  },
  {
    "id": "way/786246934",
    "name": "Baptist Medical Center Nalerigu",
    "amenity": "hospital",
    "healthcare": "hospital",
    "region": "Northern East",
    "district": "East Mamprusi",
    "lat": 10.515864233333334,
    "lon": -0.3641059166666667
  },
  {
    "id": "way/788136715",
    "name": "Baptist Medical Centre",
    "amenity": "hospital",
    "healthcare": "hospital",
    "region": "Northern East",
    "district": "East Mamprusi",
    "lat": 10.520238733333334,
    "lon": -0.36523839999999996
  },
  {
    "id": "way/464055939",
    "name": null,
    "amenity": "pharmacy",
    "healthcare": "pharmacy",
    "region": "Northern East",
    "district": "East Mamprusi",
    "lat": 10.521595623076923,
    "lon": -0.36727559230769236
  },
  {
    "id": "way/461407540",
    "name": null,
    "amenity": "pharmacy",
    "healthcare": "pharmacy",
    "region": "Northern East",
    "district": "East Mamprusi",
    "lat": 10.524103144444446,
    "lon": -0.3698897555555556
  },
  {
    "id": "node/7133434576",
    "name": null,
    "amenity": "pharmacy",
    "healthcare": "pharmacy",
    "region": "Northern East",
    "district": "East Mamprusi",
    "lat": 10.527837,
    "lon": -0.3701711
  },
  {
    "id": "way/458208358",
    "name": null,
    "amenity": "pharmacy",
    "healthcare": "pharmacy",
    "region": "Northern East",
    "district": "East Mamprusi",
    "lat": 10.53438828,
    "lon": -0.3740908
  },
  {
    "id": "way/477045311",
    "name": null,
    "amenity": "pharmacy",
    "healthcare": "pharmacy",
    "region": "Northern East",
    "district": "East Mamprusi",
    "lat": 10.52609612,
    "lon": -0.36897394000000006
  },
  {
    "id": "way/1353970278",
    "name": "hospital",
    "amenity": "hospital",
    "healthcare": "hospital",
    "region": "Upper East",
    "district": "Bawku West",
    "lat": 10.937369788888889,
    "lon": -0.4723045777777778
  },
  {
    "id": "way/787181131",
    "name": "Zebilla District Hospital",
    "amenity": "hospital",
    "healthcare": "hospital",
    "region": "Upper East",
    "district": "Bawku West",
    "lat": 10.936778809999998,
    "lon": -0.47336710000000004
  },
  {
    "id": "way/1482120418",
    "name": "Venyard",
    "amenity": "hospital",
    "healthcare": "hospital",
    "region": "Upper East",
    "district": "Bawku Municipal",
    "lat": 11.06102226923077,
    "lon": -0.2592175230769231
  },
  {
    "id": "way/888287292",
    "name": null,
    "amenity": "clinic",
    "healthcare": "clinic",
    "region": "Upper East",
    "district": "Bawku Municipal",
    "lat": 11.046976622222221,
    "lon": -0.26691413333333336
  },
  {
    "id": "way/406732183",
    "name": "Bawku Presbyterian Hospital",
    "amenity": "hospital",
    "healthcare": "unknown",
    "region": "Upper East",
    "district": "Bawku Municipal",
    "lat": 11.060469229999999,
    "lon": -0.23234799
  },
  {
    "id": "node/8809422665",
    "name": "USP Boade",
    "amenity": "hospital",
    "healthcare": "unknown",
    "region": null,
    "district": null,
    "lat": 11.1156176,
    "lon": -0.0779551
  },
  {
    "id": "node/6058330729",
    "name": null,
    "amenity": "doctors",
    "healthcare": "hospital",
    "region": "Upper East",
    "district": "Tempane",
    "lat": 10.8125898,
    "lon": -0.0847404
  },
  {
    "id": "way/680116564",
    "name": "Samudure Hospital",
    "amenity": "hospital",
    "healthcare": "hospital",
    "region": "Upper East",
    "district": "Tempane",
    "lat": 10.820531988888888,
    "lon": -0.05596112222222221
  },
  {
    "id": "node/2278887839",
    "name": "Garu Health Centre",
    "amenity": "doctors",
    "healthcare": "doctor",
    "region": "Upper East",
    "district": "Garu",
    "lat": 10.8494616,
    "lon": -0.1778384
  },
  {
    "id": "node/6546836546",
    "name": "Divine Clinic",
    "amenity": "clinic",
    "healthcare": "unknown",
    "region": "Northern East",
    "district": "East Mamprusi",
    "lat": 10.3115232,
    "lon": -0.0932731
  },
  {
    "id": "way/441221586",
    "name": "Tong Community-based Health Planning Services (CHPS)",
    "amenity": "clinic",
    "healthcare": "unknown",
    "region": "Northern",
    "district": "Karaga",
    "lat": 9.941495479999999,
    "lon": -0.478978
  },
  {
    "id": "way/1411680861",
    "name": "Tong Community-based Health Planning Services (CHPS)",
    "amenity": "clinic",
    "healthcare": "unknown",
    "region": "Northern",
    "district": "Karaga",
    "lat": 9.94151338,
    "lon": -0.4790515
  },
  {
    "id": "node/6548990400",
    "name": null,
    "amenity": "clinic",
    "healthcare": "unknown",
    "region": "Northern",
    "district": "Gushegu",
    "lat": 9.8084411,
    "lon": -0.1146342
  },
  {
    "id": "way/1220212696",
    "name": null,
    "amenity": "hospital",
    "healthcare": "hospital",
    "region": "Volta",
    "district": "South Tongu",
    "lat": 6.001460646666668,
    "lon": 0.5948647800000001
  },
  {
    "id": "node/8986152599",
    "name": "Sogakope Government Hospital",
    "amenity": "hospital",
    "healthcare": "hospital",
    "region": "Volta",
    "district": "South Tongu",
    "lat": 6.0013869,
    "lon": 0.5949088
  },
  {
    "id": "node/8986166740",
    "name": "Planned Parenthood Association of Ghana Clinic",
    "amenity": "health_post",
    "healthcare": "yes",
    "region": "Volta",
    "district": "South Tongu",
    "lat": 6.0015825,
    "lon": 0.5975389
  },
  {
    "id": "node/8986163757",
    "name": "Tefle Health Centre",
    "amenity": "health_post",
    "healthcare": "yes",
    "region": "Volta",
    "district": "South Tongu",
    "lat": 6.0005388,
    "lon": 0.5707322
  },
  {
    "id": "node/8986160071",
    "name": "Sasekope Chps Compound",
    "amenity": "health_post",
    "healthcare": "yes",
    "region": "Volta",
    "district": "South Tongu",
    "lat": 6.047804,
    "lon": 0.6044057
  },
  {
    "id": "way/786508244",
    "name": "Sogakope District Hospital",
    "amenity": "hospital",
    "healthcare": "hospital",
    "region": "Volta",
    "district": "South Tongu",
    "lat": 6.00832074,
    "lon": 0.61456114
  },
  {
    "id": "node/8544169870",
    "name": "AdePharmacy",
    "amenity": "pharmacy",
    "healthcare": "pharmacy",
    "region": "Volta",
    "district": "South Tongu",
    "lat": 6.0064466,
    "lon": 0.6152706
  },
  {
    "id": "node/3807057244",
    "name": "Topview Diagnostic Center",
    "amenity": "clinic",
    "healthcare": "clinic",
    "region": "Volta",
    "district": "South Tongu",
    "lat": 6.0061958,
    "lon": 0.6158548
  },
  {
    "id": "way/457229787",
    "name": "Ada East District Hospital",
    "amenity": "hospital",
    "healthcare": "hospital",
    "region": "Greater Accra",
    "district": "Ada East",
    "lat": 5.8896405,
    "lon": 0.5697372599999999
  },
  {
    "id": "node/9368231190",
    "name": "Ranstell Pharmacy",
    "amenity": "pharmacy",
    "healthcare": "unknown",
    "region": "Greater Accra",
    "district": "Ada East",
    "lat": 5.898781,
    "lon": 0.5225453
  },
  {
    "id": "way/355684266",
    "name": null,
    "amenity": "pharmacy",
    "healthcare": "unknown",
    "region": "Greater Accra",
    "district": "Ada West",
    "lat": 5.86411028,
    "lon": 0.43303897999999996
  },
  {
    "id": "way/355684267",
    "name": null,
    "amenity": "pharmacy",
    "healthcare": "unknown",
    "region": "Greater Accra",
    "district": "Ada West",
    "lat": 5.86353178,
    "lon": 0.43332093999999993
  },
  {
    "id": "way/785870852",
    "name": "Atorkor Clinic",
    "amenity": "hospital",
    "healthcare": "hospital",
    "region": "Volta",
    "district": "Anloga",
    "lat": 5.77638166,
    "lon": 0.82165032
  },
  {
    "id": "node/4528254892",
    "name": "Anloga Avete Clinic",
    "amenity": "clinic",
    "healthcare": "unknown",
    "region": "Volta",
    "district": "Anloga",
    "lat": 5.7916311,
    "lon": 0.8825777
  },
  {
    "id": "node/8544159978",
    "name": null,
    "amenity": "pharmacy",
    "healthcare": "unknown",
    "region": "Volta",
    "district": "Anloga",
    "lat": 5.861134,
    "lon": 0.7619456
  },
  {
    "id": "node/8979649624",
    "name": "Adakpo Chps Compound",
    "amenity": "health_post",
    "healthcare": "yes",
    "region": "Volta",
    "district": "Central Tongu",
    "lat": 6.1702103,
    "lon": 0.6705331
  },
  {
    "id": "node/8979639979",
    "name": "Kpoviadzi Health Centre",
    "amenity": "health_post",
    "healthcare": "yes",
    "region": "Volta",
    "district": "Central Tongu",
    "lat": 6.2028133,
    "lon": 0.7097067
  },
  {
    "id": "node/8969014586",
    "name": "Mafi Gidikpoe Chps",
    "amenity": "health_post",
    "healthcare": "yes",
    "region": "Volta",
    "district": "Central Tongu",
    "lat": 6.30689,
    "lon": 0.6466089
  },
  {
    "id": "node/8563919181",
    "name": "Adaklu Sofa Health Centre",
    "amenity": "unknown",
    "healthcare": "yes",
    "region": "Volta",
    "district": "Adaklu",
    "lat": 6.3837737,
    "lon": 0.6386428
  },
  {
    "id": "node/2967647199",
    "name": null,
    "amenity": "pharmacy",
    "healthcare": "unknown",
    "region": "Volta",
    "district": "Akatsi South",
    "lat": 6.1301195,
    "lon": 0.7902956
  },
  {
    "id": "node/12945100702",
    "name": "Selack Pharmacy",
    "amenity": "pharmacy",
    "healthcare": "pharmacy",
    "region": "Volta",
    "district": "Akatsi South",
    "lat": 6.1292114,
    "lon": 0.7952012
  },
  {
    "id": "node/5591386722",
    "name": "Hoggar Clinic Limited",
    "amenity": "clinic",
    "healthcare": "unknown",
    "region": "Volta",
    "district": "Akatsi South",
    "lat": 6.1296038,
    "lon": 0.7957311
  },
  {
    "id": "way/297185541",
    "name": "Akatsi District Hospital",
    "amenity": "hospital",
    "healthcare": "unknown",
    "region": "Volta",
    "district": "Akatsi South",
    "lat": 6.1391564,
    "lon": 0.8080179166666667
  },
  {
    "id": "node/10681755504",
    "name": "Gilter Pharmacy",
    "amenity": "pharmacy",
    "healthcare": "unknown",
    "region": "Volta",
    "district": "Ketu North",
    "lat": 6.0670738,
    "lon": 0.8600637
  },
  {
    "id": "way/465805352",
    "name": "International Mission Hospital",
    "amenity": "hospital",
    "healthcare": "unknown",
    "region": "Volta",
    "district": "Ketu South",
    "lat": 6.056594133333333,
    "lon": 0.99232605
  },
  {
    "id": "node/11404156499",
    "name": "CEK Pharmacy",
    "amenity": "pharmacy",
    "healthcare": "unknown",
    "region": "Volta",
    "district": "Ketu South",
    "lat": 6.0743135,
    "lon": 1.0373913
  },
  {
    "id": "node/9966511742",
    "name": "Nogokpo CHPS Compound",
    "amenity": "clinic",
    "healthcare": "clinic",
    "region": "Volta",
    "district": "Ketu South",
    "lat": 6.0922432,
    "lon": 1.0746767
  },
  {
    "id": "node/6186056577",
    "name": "Emergency Response Center",
    "amenity": "clinic",
    "healthcare": "unknown",
    "region": "Volta",
    "district": "Ketu South",
    "lat": 6.0923914,
    "lon": 1.0741066
  },
  {
    "id": "way/787180230",
    "name": "St. Anthony's Hospital",
    "amenity": "hospital",
    "healthcare": "hospital",
    "region": "Volta",
    "district": "Ketu North",
    "lat": 6.241085122222222,
    "lon": 0.9891263
  },
  {
    "id": "node/3319457082",
    "name": "Elikplim Pharmacy",
    "amenity": "pharmacy",
    "healthcare": "unknown",
    "region": "Volta",
    "district": "Ketu South",
    "lat": 6.1139666,
    "lon": 1.19486
  },
  {
    "id": "node/6189309689",
    "name": "Alpat Pharmacy Limited",
    "amenity": "pharmacy",
    "healthcare": "unknown",
    "region": "Volta",
    "district": "Ketu South",
    "lat": 6.1186148,
    "lon": 1.1886932
  },
  {
    "id": "node/3655509800",
    "name": "Verdi Pharmacy",
    "amenity": "pharmacy",
    "healthcare": "unknown",
    "region": "Volta",
    "district": "Ketu South",
    "lat": 6.1203543,
    "lon": 1.1805651
  },
  {
    "id": "node/6371762886",
    "name": "Verdi Pharmacy",
    "amenity": "pharmacy",
    "healthcare": "unknown",
    "region": "Volta",
    "district": "Ketu South",
    "lat": 6.1174636,
    "lon": 1.1808043
  },
  {
    "id": "node/3655509799",
    "name": "Dzigbordi Chemical Store",
    "amenity": "pharmacy",
    "healthcare": "unknown",
    "region": "Volta",
    "district": "Ketu South",
    "lat": 6.1178137,
    "lon": 1.1806674
  },
  {
    "id": "way/247224773",
    "name": "Ketu South District Hospital",
    "amenity": "hospital",
    "healthcare": "unknown",
    "region": "Volta",
    "district": "Ketu South",
    "lat": 6.117449416666667,
    "lon": 1.1798220833333333
  },
  {
    "id": "way/247117144",
    "name": "New Hope Clinic",
    "amenity": "hospital",
    "healthcare": "unknown",
    "region": "Volta",
    "district": "Ketu South",
    "lat": 6.1092944909090905,
    "lon": 1.1598237909090907
  },
  {
    "id": "way/268779320",
    "name": "Central Aflao Hospital",
    "amenity": "hospital",
    "healthcare": "unknown",
    "region": "Volta",
    "district": "Ketu South",
    "lat": 6.115242822222222,
    "lon": 1.1689356444444445
  },
  {
    "id": "way/360070122",
    "name": "Reproductive Health Centre",
    "amenity": "clinic",
    "healthcare": "unknown",
    "region": "Volta",
    "district": "Ketu South",
    "lat": 6.1008759,
    "lon": 1.1481505799999998
  },
  {
    "id": "node/3646705787",
    "name": "Jowis Chemicals",
    "amenity": "pharmacy",
    "healthcare": "unknown",
    "region": "Volta",
    "district": "Ketu South",
    "lat": 6.1007712,
    "lon": 1.148001
  },
  {
    "id": "node/5396300917",
    "name": null,
    "amenity": "pharmacy",
    "healthcare": "unknown",
    "region": "Volta",
    "district": "Ketu South",
    "lat": 6.1013264,
    "lon": 1.1474524
  },
  {
    "id": "way/247289779",
    "name": "Sape Agbo Memorial Hospital",
    "amenity": "hospital",
    "healthcare": "unknown",
    "region": "Volta",
    "district": "Ketu South",
    "lat": 6.097209566666667,
    "lon": 1.1428383666666668
  },
  {
    "id": "way/247155734",
    "name": "Keta Municipal Hospital",
    "amenity": "hospital",
    "healthcare": "hospital",
    "region": "Volta",
    "district": "Keta Municipal",
    "lat": 5.888128485714285,
    "lon": 0.9825592142857141
  },
  {
    "id": "node/6032340907",
    "name": null,
    "amenity": "pharmacy",
    "healthcare": "pharmacy",
    "region": "Volta",
    "district": "Keta Municipal",
    "lat": 5.8930467,
    "lon": 0.985625
  },
  {
    "id": "node/7120536455",
    "name": "Riad",
    "amenity": "pharmacy",
    "healthcare": "unknown",
    "region": "Volta",
    "district": "Keta Municipal",
    "lat": 5.902439,
    "lon": 0.9889165
  },
  {
    "id": "node/3960377428",
    "name": "Theodore Semey Kwaku",
    "amenity": "pharmacy",
    "healthcare": "pharmacy",
    "region": "Volta",
    "district": "Keta Municipal",
    "lat": 5.9109714,
    "lon": 0.9906113
  },
  {
    "id": "way/1222305887",
    "name": null,
    "amenity": "pharmacy",
    "healthcare": "pharmacy",
    "region": "Volta",
    "district": "Keta Municipal",
    "lat": 5.910996014285714,
    "lon": 0.9906375571428571
  },
  {
    "id": "way/785881345",
    "name": "Ghana Health Service clinic",
    "amenity": "hospital",
    "healthcare": "hospital",
    "region": "Volta",
    "district": "Keta Municipal",
    "lat": 5.85020826,
    "lon": 0.97229532
  },
  {
    "id": "node/5077394121",
    "name": "St. Joseph's Hospital",
    "amenity": "clinic",
    "healthcare": "unknown",
    "region": "Upper West",
    "district": "Jirapa",
    "lat": 10.533558,
    "lon": -2.6997333
  },
  {
    "id": "node/13063928520",
    "name": "Nandom Hospital",
    "amenity": "hospital",
    "healthcare": "unknown",
    "region": "Upper West",
    "district": "Nandom",
    "lat": 10.8389883,
    "lon": -2.7729897
  },
  {
    "id": "way/1421585934",
    "name": null,
    "amenity": "hospital",
    "healthcare": "unknown",
    "region": "Upper West",
    "district": "Nandom",
    "lat": 10.839148,
    "lon": -2.7733290200000003
  },
  {
    "id": "node/12953710337",
    "name": "Hain Polyclinic",
    "amenity": "hospital",
    "healthcare": "hospital",
    "region": "Upper West",
    "district": "Jirapa",
    "lat": 10.6925153,
    "lon": -2.4359607
  },
  {
    "id": "way/487527494",
    "name": "Clinic",
    "amenity": "clinic",
    "healthcare": "unknown",
    "region": "Upper West",
    "district": "Daffiama Bussie Issa",
    "lat": 10.38434106,
    "lon": -2.3284911399999997
  },
  {
    "id": "node/13192517497",
    "name": "Nuhu Hawa Jimba",
    "amenity": "pharmacy",
    "healthcare": "unknown",
    "region": "Upper West",
    "district": "Wa East",
    "lat": 10.1373341,
    "lon": -2.3558967
  },
  {
    "id": "way/786555100",
    "name": "Jaang Clinic",
    "amenity": "hospital",
    "healthcare": "hospital",
    "region": "Upper West",
    "district": "Nadowli-Kaleo",
    "lat": 10.1976201125,
    "lon": -2.4597817749999997
  },
  {
    "id": "way/406732179",
    "name": "New Upper West Regional Hospital Site",
    "amenity": "hospital",
    "healthcare": "hospital",
    "region": "Upper West",
    "district": "Wa Municipal",
    "lat": 10.087500362500002,
    "lon": -2.5212152375
  },
  {
    "id": "way/787190436",
    "name": "Ahmaddiyya Hospital",
    "amenity": "hospital",
    "healthcare": "hospital",
    "region": "Upper West",
    "district": "Nadowli-Kaleo",
    "lat": 10.1697424,
    "lon": -2.54169422
  },
  {
    "id": "way/1074648190",
    "name": "Charia Health Center",
    "amenity": "hospital",
    "healthcare": "hospital",
    "region": "Upper West",
    "district": "Wa Municipal",
    "lat": 10.1103775,
    "lon": -2.57051594
  },
  {
    "id": "node/8734375220",
    "name": "Bussie Health Centre",
    "amenity": "clinic",
    "healthcare": "general;maternity",
    "region": "Upper West",
    "district": "Daffiama Bussie Issa",
    "lat": 10.490573,
    "lon": -2.5007604
  },
  {
    "id": "way/787188341",
    "name": "Nadowli Hospital",
    "amenity": "hospital",
    "healthcare": "hospital",
    "region": "Upper West",
    "district": "Nadowli-Kaleo",
    "lat": 10.363888020000001,
    "lon": -2.6586927499999997
  },
  {
    "id": "way/1272569021",
    "name": "Maternity Block",
    "amenity": "unknown",
    "healthcare": "yes",
    "region": "Upper West",
    "district": "Nadowli-Kaleo",
    "lat": 10.4123324,
    "lon": -2.69547942
  },
  {
    "id": "way/1272568879",
    "name": "Kpazie Community Health Planning and Service (CHPS) Compound",
    "amenity": "unknown",
    "healthcare": "yes",
    "region": "Upper West",
    "district": "Nadowli-Kaleo",
    "lat": 10.412398457142857,
    "lon": -2.6956391857142856
  },
  {
    "id": "way/1272567762",
    "name": "Nyimbali CHPS",
    "amenity": "clinic",
    "healthcare": "clinic",
    "region": "Upper West",
    "district": "Nadowli-Kaleo",
    "lat": 10.16368966923077,
    "lon": -2.607185138461538
  },
  {
    "id": "way/945988947",
    "name": "CHPS Compound Jambusi",
    "amenity": "unknown",
    "healthcare": "centre",
    "region": "Upper West",
    "district": "Wa West",
    "lat": 10.02571112,
    "lon": -2.77158826
  },
  {
    "id": "node/10751464160",
    "name": null,
    "amenity": "hospital",
    "healthcare": "unknown",
    "region": "Upper West",
    "district": "Wa West",
    "lat": 9.8262678,
    "lon": -2.6839137
  },
  {
    "id": "node/12566571409",
    "name": "Ga Health Center",
    "amenity": "clinic",
    "healthcare": "unknown",
    "region": "Upper West",
    "district": "Wa West",
    "lat": 9.79787,
    "lon": -2.4957016
  },
  {
    "id": "node/13196253472",
    "name": "Aban Aziz",
    "amenity": "pharmacy",
    "healthcare": "unknown",
    "region": "Upper West",
    "district": "Wa West",
    "lat": 9.7968881,
    "lon": -2.4925249
  },
  {
    "id": "node/9935260933",
    "name": null,
    "amenity": "pharmacy",
    "healthcare": "unknown",
    "region": "Upper West",
    "district": "Wa West",
    "lat": 9.8673366,
    "lon": -2.4621777
  },
  {
    "id": "way/786552200",
    "name": "Ponyentanga Clinic",
    "amenity": "clinic",
    "healthcare": "unknown",
    "region": "Upper West",
    "district": "Wa West",
    "lat": 9.865968114285716,
    "lon": -2.463722814285714
  },
  {
    "id": "node/9935260932",
    "name": null,
    "amenity": "pharmacy",
    "healthcare": "unknown",
    "region": "Upper West",
    "district": "Wa West",
    "lat": 9.8712835,
    "lon": -2.4618213
  },
  {
    "id": "node/9921291278",
    "name": null,
    "amenity": "pharmacy",
    "healthcare": "unknown",
    "region": "Upper West",
    "district": "Wa Municipal",
    "lat": 10.0605771,
    "lon": -2.5306126
  },
  {
    "id": "node/8957046942",
    "name": "Homeland Clinic",
    "amenity": "clinic",
    "healthcare": "unknown",
    "region": "Upper West",
    "district": "Wa Municipal",
    "lat": 10.0519176,
    "lon": -2.5390234
  },
  {
    "id": "way/441141152",
    "name": "Nachanta CHPS Compound",
    "amenity": "clinic",
    "healthcare": "clinic",
    "region": "Upper West",
    "district": "Wa Municipal",
    "lat": 10.00900092,
    "lon": -2.55560434
  },
  {
    "id": "node/13537244660",
    "name": "Saaka Saeed",
    "amenity": "pharmacy",
    "healthcare": "unknown",
    "region": "Upper West",
    "district": "Wa Municipal",
    "lat": 9.9944517,
    "lon": -2.5150058
  },
  {
    "id": "node/13531376437",
    "name": "Kpongu Health Center",
    "amenity": "clinic",
    "healthcare": "unknown",
    "region": "Upper West",
    "district": "Wa Municipal",
    "lat": 9.9928674,
    "lon": -2.5166887
  },
  {
    "id": "way/929222972",
    "name": null,
    "amenity": "hospital",
    "healthcare": "hospital",
    "region": "Upper West",
    "district": "Wa Municipal",
    "lat": 10.083642639999999,
    "lon": -2.5264500199999995
  },
  {
    "id": "node/8223753022",
    "name": "Habilat Pharmacy",
    "amenity": "pharmacy",
    "healthcare": "pharmacy",
    "region": "Upper West",
    "district": "Wa Municipal",
    "lat": 10.0641156,
    "lon": -2.5035393
  },
  {
    "id": "node/8667760640",
    "name": "Rabito Clinic",
    "amenity": "clinic",
    "healthcare": "clinic",
    "region": "Upper West",
    "district": "Wa Municipal",
    "lat": 10.0742319,
    "lon": -2.5097067
  },
  {
    "id": "node/13176744131",
    "name": "Ibrahim Adams",
    "amenity": "pharmacy",
    "healthcare": "unknown",
    "region": "Upper West",
    "district": "Wa Municipal",
    "lat": 10.0676919,
    "lon": -2.4954178
  },
  {
    "id": "node/8957052844",
    "name": null,
    "amenity": "pharmacy",
    "healthcare": "pharmacy",
    "region": "Upper West",
    "district": "Wa Municipal",
    "lat": 10.0652295,
    "lon": -2.4997954
  },
  {
    "id": "node/13594995877",
    "name": "Bliss Eye Care",
    "amenity": "clinic",
    "healthcare": "unknown",
    "region": "Upper West",
    "district": "Wa Municipal",
    "lat": 10.0535844,
    "lon": -2.5010303
  },
  {
    "id": "way/406732178",
    "name": "Wa Municipal Hospital",
    "amenity": "hospital",
    "healthcare": "hospital",
    "region": "Upper West",
    "district": "Wa Municipal",
    "lat": 10.05573537,
    "lon": -2.4979274599999997
  },
  {
    "id": "node/9913042558",
    "name": "Consulting Room",
    "amenity": "doctors",
    "healthcare": "doctor",
    "region": "Upper West",
    "district": "Wa Municipal",
    "lat": 10.0568044,
    "lon": -2.4974974
  },
  {
    "id": "node/9913042559",
    "name": "Hospital Pharmacy",
    "amenity": "pharmacy",
    "healthcare": "pharmacy",
    "region": "Upper West",
    "district": "Wa Municipal",
    "lat": 10.0573584,
    "lon": -2.4975476
  },
  {
    "id": "node/9913042560",
    "name": "Eye Clinic",
    "amenity": "clinic",
    "healthcare": "clinic",
    "region": "Upper West",
    "district": "Wa Municipal",
    "lat": 10.0576027,
    "lon": -2.4978621
  },
  {
    "id": "node/11361328455",
    "name": "Baseline Pharmacy",
    "amenity": "pharmacy",
    "healthcare": "pharmacy",
    "region": "Upper West",
    "district": "Wa Municipal",
    "lat": 10.0554235,
    "lon": -2.505265
  },
  {
    "id": "node/8957055909",
    "name": "Pharmaceuticals Ghana Limited",
    "amenity": "pharmacy",
    "healthcare": "pharmacy",
    "region": "Upper West",
    "district": "Wa Municipal",
    "lat": 10.0574927,
    "lon": -2.5072258
  },
  {
    "id": "way/935583091",
    "name": null,
    "amenity": "clinic",
    "healthcare": "clinic",
    "region": "Upper West",
    "district": "Wa Municipal",
    "lat": 10.044832277777779,
    "lon": -2.4860641444444447
  },
  {
    "id": "node/8957055995",
    "name": null,
    "amenity": "pharmacy",
    "healthcare": "unknown",
    "region": "Upper West",
    "district": "Wa Municipal",
    "lat": 10.0338061,
    "lon": -2.4739808
  },
  {
    "id": "node/13534803218",
    "name": "Blue Light Pharmacy",
    "amenity": "pharmacy",
    "healthcare": "unknown",
    "region": "Upper West",
    "district": "Wa Municipal",
    "lat": 10.02084,
    "lon": -2.4874583
  },
  {
    "id": "node/8671720523",
    "name": "UBIDS Hospital",
    "amenity": "hospital",
    "healthcare": "unknown",
    "region": "Upper West",
    "district": "Wa Municipal",
    "lat": 9.9906544,
    "lon": -2.4747012
  },
  {
    "id": "way/1361718034",
    "name": "Tanina CHPS",
    "amenity": "clinic",
    "healthcare": "clinic",
    "region": "Upper West",
    "district": "Wa West",
    "lat": 9.9020243,
    "lon": -2.45977668
  },
  {
    "id": "node/13190139383",
    "name": null,
    "amenity": "pharmacy",
    "healthcare": "unknown",
    "region": "Upper West",
    "district": "Wa Municipal",
    "lat": 10.0030408,
    "lon": -2.4374314
  },
  {
    "id": "node/13436232262",
    "name": "Busa Health Centre",
    "amenity": "clinic",
    "healthcare": "unknown",
    "region": "Upper West",
    "district": "Wa Municipal",
    "lat": 10.0205722,
    "lon": -2.3909158
  },
  {
    "id": "node/13208372240",
    "name": "Mohammed Issah",
    "amenity": "pharmacy",
    "healthcare": "unknown",
    "region": "Upper West",
    "district": "Wa East",
    "lat": 9.8991768,
    "lon": -2.3544997
  },
  {
    "id": "way/1360879190",
    "name": "Loggu Clinic",
    "amenity": "clinic",
    "healthcare": "unknown",
    "region": "Upper West",
    "district": "Wa East",
    "lat": 9.90262726,
    "lon": -2.35293352
  },
  {
    "id": "node/9403707435",
    "name": "Tifere Abdullai",
    "amenity": "pharmacy",
    "healthcare": "unknown",
    "region": "Upper West",
    "district": "Wa East",
    "lat": 9.8671914,
    "lon": -2.4390963
  },
  {
    "id": "node/6657453040",
    "name": "Gina Pharmacy",
    "amenity": "pharmacy",
    "healthcare": "pharmacy",
    "region": "Northern",
    "district": "Sagnerigu",
    "lat": 9.456337,
    "lon": -0.8453479
  },
  {
    "id": "node/6657453042",
    "name": "Salbelia Licenced Chemical Store",
    "amenity": "pharmacy",
    "healthcare": "pharmacy",
    "region": "Northern",
    "district": "Sagnerigu",
    "lat": 9.4529281,
    "lon": -0.844909
  },
  {
    "id": "node/6544013171",
    "name": "Calmart",
    "amenity": "pharmacy",
    "healthcare": "pharmacy",
    "region": "Northern",
    "district": "Sagnerigu",
    "lat": 9.4493186,
    "lon": -0.8450981
  },
  {
    "id": "node/1880289111",
    "name": "Ethical Pharmacy",
    "amenity": "pharmacy",
    "healthcare": "pharmacy",
    "region": "Northern",
    "district": "Sagnerigu",
    "lat": 9.4445146,
    "lon": -0.8439082
  },
  {
    "id": "node/6657453037",
    "name": "Habana Medical Service",
    "amenity": "clinic",
    "healthcare": "clinic",
    "region": "Northern",
    "district": "Sagnerigu",
    "lat": 9.4586403,
    "lon": -0.8422097
  },
  {
    "id": "node/7119881704",
    "name": null,
    "amenity": "pharmacy",
    "healthcare": "pharmacy",
    "region": "Northern",
    "district": "Sagnerigu",
    "lat": 9.4626361,
    "lon": -0.8461139
  },
  {
    "id": "node/6657453038",
    "name": "Trust Care Pharmacy",
    "amenity": "pharmacy",
    "healthcare": "pharmacy",
    "region": "Northern",
    "district": "Sagnerigu",
    "lat": 9.459276,
    "lon": -0.8456562
  },
  {
    "id": "way/785946802",
    "name": "Kamina Medical Center",
    "amenity": "hospital",
    "healthcare": "hospital",
    "region": "Northern",
    "district": "Sagnerigu",
    "lat": 9.461779949999997,
    "lon": -0.8490323142857142
  },
  {
    "id": "node/1880284528",
    "name": null,
    "amenity": "pharmacy",
    "healthcare": "pharmacy",
    "region": "Northern",
    "district": "Sagnerigu",
    "lat": 9.4549391,
    "lon": -0.8618576
  },
  {
    "id": "way/785937438",
    "name": "Tizaa Specialist Hospital",
    "amenity": "hospital",
    "healthcare": "hospital",
    "region": "Northern",
    "district": "Sagnerigu",
    "lat": 9.448863683333334,
    "lon": -0.8649145166666666
  },
  {
    "id": "node/6876160102",
    "name": null,
    "amenity": "pharmacy",
    "healthcare": "pharmacy",
    "region": "Northern",
    "district": "Sagnerigu",
    "lat": 9.4610914,
    "lon": -0.8680281
  },
  {
    "id": "node/6628636253",
    "name": null,
    "amenity": "pharmacy",
    "healthcare": "pharmacy",
    "region": "Northern",
    "district": "Sagnerigu",
    "lat": 9.4391843,
    "lon": -0.8806631
  },
  {
    "id": "node/7047185856",
    "name": null,
    "amenity": "pharmacy",
    "healthcare": "pharmacy",
    "region": "Northern",
    "district": "Sagnerigu",
    "lat": 9.4290365,
    "lon": -0.9156432
  },
  {
    "id": "node/6644165408",
    "name": "God Cares Community Hospital",
    "amenity": "clinic",
    "healthcare": "clinic",
    "region": "Northern",
    "district": "Tamale Metropolitan",
    "lat": 9.4039648,
    "lon": -0.9115151
  },
  {
    "id": "node/7047185833",
    "name": null,
    "amenity": "pharmacy",
    "healthcare": "pharmacy",
    "region": "Northern",
    "district": "Tamale Metropolitan",
    "lat": 9.4043446,
    "lon": -0.9106317
  },
  {
    "id": "way/1182211466",
    "name": "Bontanga hospital",
    "amenity": "hospital",
    "healthcare": "hospital",
    "region": "Northern",
    "district": "Kumbungu",
    "lat": 9.579364739999999,
    "lon": -0.9953195599999999
  },
  {
    "id": "way/441195258",
    "name": "Janga Polyclinic",
    "amenity": "clinic",
    "healthcare": "unknown",
    "region": "Northern East",
    "district": "West Mamprusi Municipal",
    "lat": 10.02512718,
    "lon": -0.9726189599999999
  },
  {
    "id": "way/441240745",
    "name": "Janga CHPS Center",
    "amenity": "clinic",
    "healthcare": "unknown",
    "region": "Northern East",
    "district": "West Mamprusi Municipal",
    "lat": 10.028287184615383,
    "lon": -0.9752954307692309
  },
  {
    "id": "node/4449818564",
    "name": "CHPS",
    "amenity": "clinic",
    "healthcare": "unknown",
    "region": "Northern East",
    "district": "West Mamprusi Municipal",
    "lat": 10.0688655,
    "lon": -0.8971085
  },
  {
    "id": "node/7115122023",
    "name": null,
    "amenity": "pharmacy",
    "healthcare": "pharmacy",
    "region": "Northern",
    "district": "Savelugu",
    "lat": 9.8625151,
    "lon": -0.870556
  },
  {
    "id": "way/554224617",
    "name": "Diare Health Center",
    "amenity": "hospital",
    "healthcare": "hospital",
    "region": "Northern",
    "district": "Savelugu",
    "lat": 9.87750712,
    "lon": -0.8719077000000001
  },
  {
    "id": "node/6544036470",
    "name": "Nutritional Rehab Center",
    "amenity": "unknown",
    "healthcare": "centre",
    "region": "Northern",
    "district": "Savelugu",
    "lat": 9.8780555,
    "lon": -0.871762
  },
  {
    "id": "node/2521014504",
    "name": "Pong-Tamale CHPS Clinic",
    "amenity": "clinic",
    "healthcare": "unknown",
    "region": "Northern",
    "district": "Savelugu",
    "lat": 9.6806869,
    "lon": -0.8300194
  },
  {
    "id": "node/7115087242",
    "name": null,
    "amenity": "pharmacy",
    "healthcare": "pharmacy",
    "region": "Northern",
    "district": "Savelugu",
    "lat": 9.7446283,
    "lon": -0.8237217
  },
  {
    "id": "way/441237332",
    "name": "Pishigu Clinic",
    "amenity": "hospital",
    "healthcare": "unknown",
    "region": "Northern",
    "district": "Karaga",
    "lat": 9.96674400769231,
    "lon": -0.6473414769230769
  },
  {
    "id": "way/786252716",
    "name": "Bagurugu Clinic",
    "amenity": "clinic",
    "healthcare": "clinic",
    "region": "Northern",
    "district": "Karaga",
    "lat": 9.8886043,
    "lon": -0.72356156
  },
  {
    "id": "node/6544034532",
    "name": "Kukobila CHIP",
    "amenity": "unknown",
    "healthcare": "centre",
    "region": "Northern",
    "district": "Savelugu",
    "lat": 10.1187404,
    "lon": -0.8082125
  },
  {
    "id": "way/786246312",
    "name": "Langbensi",
    "amenity": "hospital",
    "healthcare": "hospital",
    "region": "Northern East",
    "district": "East Mamprusi",
    "lat": 10.407914960000001,
    "lon": -0.5608840199999999
  },
  {
    "id": "way/786247674",
    "name": "Catholic Family Reproductive Health Program",
    "amenity": "unknown",
    "healthcare": "hospital",
    "region": "Northern East",
    "district": "West Mamprusi Municipal",
    "lat": 10.36031466,
    "lon": -0.7959309399999999
  },
  {
    "id": "node/7119947983",
    "name": null,
    "amenity": "pharmacy",
    "healthcare": "pharmacy",
    "region": "Northern East",
    "district": "West Mamprusi Municipal",
    "lat": 10.3975025,
    "lon": -0.7858905
  },
  {
    "id": "node/7119985893",
    "name": null,
    "amenity": "pharmacy",
    "healthcare": "pharmacy",
    "region": "Northern East",
    "district": "West Mamprusi Municipal",
    "lat": 10.4730388,
    "lon": -0.7936904
  },
  {
    "id": "way/1245380529",
    "name": "Kpasinkpe Health Centre",
    "amenity": "clinic",
    "healthcare": "clinic",
    "region": "Northern East",
    "district": "West Mamprusi Municipal",
    "lat": 10.44717311764706,
    "lon": -1.0469986529411763
  },
  {
    "id": "node/7190878321",
    "name": null,
    "amenity": "pharmacy",
    "healthcare": "pharmacy",
    "region": "Upper East",
    "district": "Talensi",
    "lat": 10.726383,
    "lon": -0.8657816
  },
  {
    "id": "node/7190871602",
    "name": null,
    "amenity": "pharmacy",
    "healthcare": "unknown",
    "region": "Upper East",
    "district": "Talensi",
    "lat": 10.7174307,
    "lon": -0.8662153
  },
  {
    "id": "node/6989603203",
    "name": null,
    "amenity": "pharmacy",
    "healthcare": "pharmacy",
    "region": "Upper East",
    "district": "Bolgatanga Municipal",
    "lat": 10.776952,
    "lon": -0.8682704
  },
  {
    "id": "node/6853310742",
    "name": "BDS Laboratories Ldt.",
    "amenity": "unknown",
    "healthcare": "laboratory",
    "region": "Upper East",
    "district": "Bolgatanga Municipal",
    "lat": 10.783377,
    "lon": -0.8502096
  },
  {
    "id": "node/7055472811",
    "name": "Bencyn Pharmacy",
    "amenity": "pharmacy",
    "healthcare": "pharmacy",
    "region": "Upper East",
    "district": "Bolgatanga Municipal",
    "lat": 10.7836187,
    "lon": -0.8495675
  },
  {
    "id": "node/7091255034",
    "name": "Ndeogo Regina",
    "amenity": "pharmacy",
    "healthcare": "pharmacy",
    "region": "Upper East",
    "district": "Bolgatanga Municipal",
    "lat": 10.7912035,
    "lon": -0.8455273
  },
  {
    "id": "way/787149445",
    "name": "Afrikids Clinic",
    "amenity": "hospital",
    "healthcare": "hospital",
    "region": "Upper East",
    "district": "Bolgatanga Municipal",
    "lat": 10.78913014,
    "lon": -0.8412276000000001
  },
  {
    "id": "node/7089598505",
    "name": "Eye of God Pharmacy",
    "amenity": "pharmacy",
    "healthcare": "pharmacy",
    "region": "Upper East",
    "district": "Bolgatanga Municipal",
    "lat": 10.8040756,
    "lon": -0.8457493
  },
  {
    "id": "way/737406049",
    "name": "Edmida Pharmacy",
    "amenity": "pharmacy",
    "healthcare": "pharmacy",
    "region": "Upper East",
    "district": "Bolgatanga Municipal",
    "lat": 10.79363606,
    "lon": -0.8468629599999999
  },
  {
    "id": "node/7057170029",
    "name": "Iqurate Laboratory Consult Limited",
    "amenity": "unknown",
    "healthcare": "laboratory",
    "region": "Upper East",
    "district": "Bolgatanga Municipal",
    "lat": 10.7868848,
    "lon": -0.8533796
  },
  {
    "id": "way/786200586",
    "name": null,
    "amenity": "hospital",
    "healthcare": "hospital",
    "region": "Upper East",
    "district": "Bolgatanga Municipal",
    "lat": 10.800034909999999,
    "lon": -0.86366936
  },
  {
    "id": "node/6815492125",
    "name": "Ginapharma Ldt.",
    "amenity": "pharmacy",
    "healthcare": "pharmacy",
    "region": "Upper East",
    "district": "Bolgatanga Municipal",
    "lat": 10.8018168,
    "lon": -0.8635947
  },
  {
    "id": "way/732030337",
    "name": "Nyariga Clinic",
    "amenity": "clinic",
    "healthcare": "clinic",
    "region": "Upper East",
    "district": "Bolgatanga Municipal",
    "lat": 10.84764276,
    "lon": -0.88231634
  },
  {
    "id": "way/756279667",
    "name": "Bolgatanga Regional Hospital",
    "amenity": "hospital",
    "healthcare": "hospital",
    "region": "Upper East",
    "district": "Bolgatanga Municipal",
    "lat": 10.8062719,
    "lon": -0.8619524571428572
  },
  {
    "id": "way/731987365",
    "name": "Presby Clinic",
    "amenity": "clinic",
    "healthcare": "clinic",
    "region": "Upper East",
    "district": "Bolgatanga Municipal",
    "lat": 10.80679468,
    "lon": -0.85601506
  },
  {
    "id": "node/6989602447",
    "name": "Azeko Sadiatu Salifu",
    "amenity": "pharmacy",
    "healthcare": "pharmacy",
    "region": "Upper East",
    "district": "Bolgatanga Municipal",
    "lat": 10.809208,
    "lon": -0.8548218
  },
  {
    "id": "way/787168371",
    "name": "Amiah Hospital",
    "amenity": "hospital",
    "healthcare": "hospital",
    "region": "Upper East",
    "district": "Bolgatanga Municipal",
    "lat": 10.809173888888889,
    "lon": -0.8506969888888889
  },
  {
    "id": "node/13513933001",
    "name": "Kandiga Atiyorum Health Facility",
    "amenity": "clinic",
    "healthcare": "clinic",
    "region": "Upper East",
    "district": "Kasena Nankana East",
    "lat": 10.8608087,
    "lon": -0.9791991
  },
  {
    "id": "way/1485757851",
    "name": "Atomkongu CHPS Compound",
    "amenity": "unknown",
    "healthcare": "health_post",
    "region": "Upper East",
    "district": "Kasena Nankana East",
    "lat": 10.835333619999998,
    "lon": -1.00036892
  },
  {
    "id": "way/808819142",
    "name": "Atomkongu CHPS Compound",
    "amenity": "unknown",
    "healthcare": "yes",
    "region": "Upper East",
    "district": "Kasena Nankana East",
    "lat": 10.8351228,
    "lon": -1.0003306799999998
  },
  {
    "id": "way/406732167",
    "name": "War Memorial Hospital",
    "amenity": "hospital",
    "healthcare": "hospital",
    "region": "Upper East",
    "district": "Kasena Nankana East",
    "lat": 10.882435608333333,
    "lon": -1.0859247583333336
  },
  {
    "id": "way/787180229",
    "name": "Asamankese Government Hospital",
    "amenity": "hospital",
    "healthcare": "hospital",
    "region": "Eastern",
    "district": "West Akim",
    "lat": 5.8537290550000005,
    "lon": -0.678717945
  },
  {
    "id": "way/1444838898",
    "name": "Odumkyere Darmang Health Centre",
    "amenity": "clinic",
    "healthcare": "clinic",
    "region": "Eastern",
    "district": "Upper West Akim",
    "lat": 5.868877442857143,
    "lon": -0.5422567857142858
  },
  {
    "id": "way/1039017785",
    "name": null,
    "amenity": "pharmacy",
    "healthcare": "pharmacy",
    "region": "Central",
    "district": "Gomoa East",
    "lat": 5.479842,
    "lon": -0.5602619000000001
  },
  {
    "id": "way/1037981793",
    "name": "GMAD Clinic",
    "amenity": "clinic",
    "healthcare": "clinic",
    "region": "Central",
    "district": "Gomoa East",
    "lat": 5.480831541666667,
    "lon": -0.5654327666666668
  },
  {
    "id": "way/1037981801",
    "name": "hospital grounds",
    "amenity": "hospital",
    "healthcare": "hospital",
    "region": "Central",
    "district": "Gomoa East",
    "lat": 5.48084384,
    "lon": -0.5653612000000001
  },
  {
    "id": "node/8942194408",
    "name": "Regiben Pharmacy",
    "amenity": "pharmacy",
    "healthcare": "unknown",
    "region": "Central",
    "district": "Effutu Municipal",
    "lat": 5.358401,
    "lon": -0.6330962
  },
  {
    "id": "node/7314169485",
    "name": "Klimovic Clinic",
    "amenity": "clinic",
    "healthcare": "alternative;birthing_centre;blood_donation;clinic;doctor;laboratory",
    "region": "Central",
    "district": "Effutu Municipal",
    "lat": 5.3660913,
    "lon": -0.6373014
  },
  {
    "id": "way/790553781",
    "name": "Klimovic Clinic",
    "amenity": "clinic",
    "healthcare": "clinic",
    "region": "Central",
    "district": "Effutu Municipal",
    "lat": 5.36612894,
    "lon": -0.6373481999999999
  },
  {
    "id": "node/8996841594",
    "name": "A.B. Chemist",
    "amenity": "pharmacy",
    "healthcare": "unknown",
    "region": "Central",
    "district": "Effutu Municipal",
    "lat": 5.3745024,
    "lon": -0.6396927
  },
  {
    "id": "node/9033427052",
    "name": "Kings pharmacy",
    "amenity": "pharmacy",
    "healthcare": "unknown",
    "region": "Central",
    "district": "Effutu Municipal",
    "lat": 5.3721289,
    "lon": -0.6389226
  },
  {
    "id": "way/689109517",
    "name": "Trauma And Othopedic Hospital",
    "amenity": "hospital",
    "healthcare": "unknown",
    "region": "Central",
    "district": "Effutu Municipal",
    "lat": 5.372392888235294,
    "lon": -0.642173705882353
  },
  {
    "id": "way/1293699868",
    "name": null,
    "amenity": "hospital",
    "healthcare": "unknown",
    "region": "Central",
    "district": "Effutu Municipal",
    "lat": 5.372453658333334,
    "lon": -0.6416646333333333
  },
  {
    "id": "node/8764779751",
    "name": null,
    "amenity": "unknown",
    "healthcare": "laboratory",
    "region": "Central",
    "district": "Effutu Municipal",
    "lat": 5.3721123,
    "lon": -0.6420214
  },
  {
    "id": "way/1094481419",
    "name": "Ansaful CHPS Compound",
    "amenity": "clinic",
    "healthcare": "clinic",
    "region": "Central",
    "district": "Gomoa East",
    "lat": 5.38756092,
    "lon": -0.6483597000000001
  },
  {
    "id": "node/9036385276",
    "name": "God is love Pharmacy",
    "amenity": "pharmacy",
    "healthcare": "unknown",
    "region": "Central",
    "district": "Gomoa East",
    "lat": 5.3995644,
    "lon": -0.6496968
  },
  {
    "id": "way/1123907983",
    "name": "UEW Hospital, North Campus.",
    "amenity": "hospital",
    "healthcare": "hospital",
    "region": "Central",
    "district": "Effutu Municipal",
    "lat": 5.369978221052631,
    "lon": -0.629598847368421
  },
  {
    "id": "node/13546712854",
    "name": "north campus",
    "amenity": "hospital",
    "healthcare": "hospital",
    "region": "Central",
    "district": "Effutu Municipal",
    "lat": 5.3700774,
    "lon": -0.6296252
  },
  {
    "id": "node/7314160685",
    "name": "University Clinic",
    "amenity": "clinic",
    "healthcare": "blood_donation;clinic;doctor;laboratory",
    "region": "Central",
    "district": "Effutu Municipal",
    "lat": 5.3693302,
    "lon": -0.629966
  },
  {
    "id": "node/7387847592",
    "name": "UEW Counselling Centre",
    "amenity": "unknown",
    "healthcare": "counselling",
    "region": "Central",
    "district": "Effutu Municipal",
    "lat": 5.3631152,
    "lon": -0.6313598
  },
  {
    "id": "node/7383192362",
    "name": "Nsuakyire Community Clinic",
    "amenity": "clinic",
    "healthcare": "clinic",
    "region": "Central",
    "district": "Effutu Municipal",
    "lat": 5.3692264,
    "lon": -0.5845995
  },
  {
    "id": "node/7383450050",
    "name": "Gyangyazie Community clinic",
    "amenity": "clinic",
    "healthcare": "clinic",
    "region": "Central",
    "district": "Effutu Municipal",
    "lat": 5.3962889,
    "lon": -0.576581
  },
  {
    "id": "way/776096298",
    "name": "Clinic",
    "amenity": "clinic",
    "healthcare": "clinic",
    "region": "Central",
    "district": "Effutu Municipal",
    "lat": 5.3385457,
    "lon": -0.6240512600000001
  },
  {
    "id": "way/791992775",
    "name": "Effutu Municipal Hospital",
    "amenity": "hospital",
    "healthcare": "hospital",
    "region": "Central",
    "district": "Effutu Municipal",
    "lat": 5.34364322,
    "lon": -0.62246884
  },
  {
    "id": "node/9627637921",
    "name": "Global Medical Solutions",
    "amenity": "unknown",
    "healthcare": "yes",
    "region": "Central",
    "district": "Effutu Municipal",
    "lat": 5.3449023,
    "lon": -0.6229792
  },
  {
    "id": "way/1144239937",
    "name": null,
    "amenity": "clinic",
    "healthcare": "clinic",
    "region": "Central",
    "district": "Effutu Municipal",
    "lat": 5.34598218,
    "lon": -0.6159767199999999
  },
  {
    "id": "node/7245552671",
    "name": "De Pablo Limited",
    "amenity": "pharmacy",
    "healthcare": "unknown",
    "region": "Central",
    "district": "Effutu Municipal",
    "lat": 5.3457456,
    "lon": -0.6265315
  },
  {
    "id": "node/7388379167",
    "name": "City Chemicals",
    "amenity": "unknown",
    "healthcare": "pharmacy",
    "region": "Central",
    "district": "Effutu Municipal",
    "lat": 5.3482088,
    "lon": -0.6286506
  },
  {
    "id": "way/791996627",
    "name": "Otoo Memorial Clinic",
    "amenity": "hospital",
    "healthcare": "hospital",
    "region": "Central",
    "district": "Effutu Municipal",
    "lat": 5.354485819999999,
    "lon": -0.63210776
  },
  {
    "id": "node/6360017285",
    "name": "Emergency Unit",
    "amenity": "clinic",
    "healthcare": "unknown",
    "region": "Central",
    "district": "Gomoa Central",
    "lat": 5.3411207,
    "lon": -0.7516456
  },
  {
    "id": "node/4614566089",
    "name": "GHS (Chips Zone)",
    "amenity": "clinic",
    "healthcare": "clinic",
    "region": "Central",
    "district": "Gomoa West",
    "lat": 5.3301088,
    "lon": -0.8334708
  },
  {
    "id": "node/8929201613",
    "name": null,
    "amenity": "pharmacy",
    "healthcare": "unknown",
    "region": "Central",
    "district": "Gomoa East",
    "lat": 5.4943964,
    "lon": -0.6895469
  },
  {
    "id": "way/786544124",
    "name": "Governmental Hospital",
    "amenity": "hospital",
    "healthcare": "hospital",
    "region": "Central",
    "district": "Agona West Municipal",
    "lat": 5.535645621428571,
    "lon": -0.692400892857143
  },
  {
    "id": "node/4099430311",
    "name": "Drug Store",
    "amenity": "pharmacy",
    "healthcare": "unknown",
    "region": "Central",
    "district": "Agona West Municipal",
    "lat": 5.5349051,
    "lon": -0.6927307
  },
  {
    "id": "node/5535380932",
    "name": null,
    "amenity": "pharmacy",
    "healthcare": "unknown",
    "region": "Central",
    "district": "Agona West Municipal",
    "lat": 5.5316828,
    "lon": -0.7004953
  },
  {
    "id": "node/7913757275",
    "name": "Kissi Sarpong Pharmacy",
    "amenity": "pharmacy",
    "healthcare": "unknown",
    "region": "Central",
    "district": "Agona West Municipal",
    "lat": 5.5365499,
    "lon": -0.7015639
  },
  {
    "id": "node/5115858546",
    "name": "Drug Store",
    "amenity": "pharmacy",
    "healthcare": "unknown",
    "region": "Central",
    "district": "Agona West Municipal",
    "lat": 5.5451393,
    "lon": -0.7027459
  },
  {
    "id": "way/787126092",
    "name": "Ahmadiyya Muslim Hospital",
    "amenity": "hospital",
    "healthcare": "hospital",
    "region": "Central",
    "district": "Agona West Municipal",
    "lat": 5.538551285714285,
    "lon": -0.699547
  },
  {
    "id": "node/4614565789",
    "name": "GHS",
    "amenity": "clinic",
    "healthcare": "clinic",
    "region": "Central",
    "district": "Ajumako-Enyan-Essiam",
    "lat": 5.3833164,
    "lon": -0.9250126
  },
  {
    "id": "node/6299186460",
    "name": null,
    "amenity": "pharmacy",
    "healthcare": "unknown",
    "region": "Central",
    "district": "Ajumako-Enyan-Essiam",
    "lat": 5.4282328,
    "lon": -0.958741
  },
  {
    "id": "node/8070175973",
    "name": "A & E Pharmacy",
    "amenity": "pharmacy",
    "healthcare": "unknown",
    "region": "Central",
    "district": "Ekumfi",
    "lat": 5.2671901,
    "lon": -1.0172193
  },
  {
    "id": "node/8070159326",
    "name": "Stanford Health",
    "amenity": "hospital",
    "healthcare": "unknown",
    "region": "Central",
    "district": "Ekumfi",
    "lat": 5.2651828,
    "lon": -1.0203137
  },
  {
    "id": "node/8070178813",
    "name": "A & E Pharmacy",
    "amenity": "pharmacy",
    "healthcare": "unknown",
    "region": "Central",
    "district": "Ekumfi",
    "lat": 5.2650332,
    "lon": -1.0204381
  },
  {
    "id": "node/13190921823",
    "name": "Sahara Herbal clinic",
    "amenity": "clinic",
    "healthcare": "clinic",
    "region": "Central",
    "district": "Ekumfi",
    "lat": 5.2569192,
    "lon": -1.0219939
  },
  {
    "id": "node/10674888237",
    "name": null,
    "amenity": "pharmacy",
    "healthcare": "unknown",
    "region": "Central",
    "district": "Ekumfi",
    "lat": 5.2579046,
    "lon": -1.0218202
  },
  {
    "id": "way/1392396016",
    "name": "Saltpond district Hospital",
    "amenity": "clinic",
    "healthcare": "clinic",
    "region": "Central",
    "district": "Mfantseman Municipal",
    "lat": 5.204591333333334,
    "lon": -1.0562933
  },
  {
    "id": "node/8142883219",
    "name": "Alex K. Okwaisie Pharmarcy",
    "amenity": "pharmacy",
    "healthcare": "unknown",
    "region": "Central",
    "district": "Mfantseman Municipal",
    "lat": 5.1769951,
    "lon": -1.1222592
  },
  {
    "id": "node/8142912456",
    "name": "John B. Bawah",
    "amenity": "pharmacy",
    "healthcare": "pharmacy",
    "region": "Central",
    "district": "Mfantseman Municipal",
    "lat": 5.176745,
    "lon": -1.1215647
  },
  {
    "id": "node/8142883220",
    "name": "Samuel Ntifful Pharmarcy",
    "amenity": "pharmacy",
    "healthcare": "unknown",
    "region": "Central",
    "district": "Mfantseman Municipal",
    "lat": 5.1741366,
    "lon": -1.1216926
  },
  {
    "id": "node/8142911215",
    "name": "Phillis Oduro Sarah Pharmarcy",
    "amenity": "pharmacy",
    "healthcare": "unknown",
    "region": "Central",
    "district": "Mfantseman Municipal",
    "lat": 5.1746706,
    "lon": -1.120458
  },
  {
    "id": "way/1372132320",
    "name": "Narkwa polyclnic",
    "amenity": "clinic",
    "healthcare": "clinic",
    "region": "Central",
    "district": "Ekumfi",
    "lat": 5.20758054,
    "lon": -0.9394663400000001
  },
  {
    "id": "way/1372132323",
    "name": null,
    "amenity": "hospital",
    "healthcare": "hospital",
    "region": "Central",
    "district": "Ekumfi",
    "lat": 5.207573166666667,
    "lon": -0.9394262333333335
  },
  {
    "id": "node/12705442346",
    "name": "Narkwa Polyclinic",
    "amenity": "clinic",
    "healthcare": "clinic",
    "region": "Central",
    "district": "Ekumfi",
    "lat": 5.2076954,
    "lon": -0.9392389
  },
  {
    "id": "node/4615061889",
    "name": "Sanford Internal Clinic",
    "amenity": "clinic",
    "healthcare": "unknown",
    "region": "Central",
    "district": "Ekumfi",
    "lat": 5.3390201,
    "lon": -0.9139165
  },
  {
    "id": "node/4333788620",
    "name": "Ngyiresi CHPS Compound",
    "amenity": "clinic",
    "healthcare": "unknown",
    "region": "Central",
    "district": "Gomoa West",
    "lat": 5.3511022,
    "lon": -0.8436953
  },
  {
    "id": "node/8005716873",
    "name": "Village of Hope Clinic",
    "amenity": "clinic",
    "healthcare": "unknown",
    "region": "Central",
    "district": "Awutu Senya East",
    "lat": 5.4310649,
    "lon": -0.4764993
  },
  {
    "id": "way/787083822",
    "name": "Fetteh Hope Hospital",
    "amenity": "hospital",
    "healthcare": "hospital",
    "region": "Central",
    "district": "Gomoa East",
    "lat": 5.43180193,
    "lon": -0.47729022
  },
  {
    "id": "node/10284300124",
    "name": null,
    "amenity": "pharmacy",
    "healthcare": "unknown",
    "region": "Central",
    "district": "Gomoa East",
    "lat": 5.5224359,
    "lon": -0.4779851
  },
  {
    "id": "node/8006985111",
    "name": "St. Gregory Catholic Hospital",
    "amenity": "hospital",
    "healthcare": "unknown",
    "region": "Central",
    "district": "Gomoa East",
    "lat": 5.5238733,
    "lon": -0.4753579
  },
  {
    "id": "node/10284310237",
    "name": "Cole Pharmacy",
    "amenity": "pharmacy",
    "healthcare": "unknown",
    "region": "Central",
    "district": "Gomoa East",
    "lat": 5.5221313,
    "lon": -0.4738164
  },
  {
    "id": "node/10284262083",
    "name": "Alpat Pharmacy",
    "amenity": "pharmacy",
    "healthcare": "unknown",
    "region": "Central",
    "district": "Gomoa East",
    "lat": 5.5218887,
    "lon": -0.46925
  },
  {
    "id": "node/8007051526",
    "name": "Roman Trust Clinic",
    "amenity": "clinic",
    "healthcare": "unknown",
    "region": "Central",
    "district": "Gomoa East",
    "lat": 5.5049824,
    "lon": -0.4570707
  },
  {
    "id": "node/10284300758",
    "name": "Helmart",
    "amenity": "pharmacy",
    "healthcare": "unknown",
    "region": "Central",
    "district": "Gomoa East",
    "lat": 5.5237971,
    "lon": -0.4588485
  },
  {
    "id": "node/10284263796",
    "name": "Vivis Pharma",
    "amenity": "pharmacy",
    "healthcare": "unknown",
    "region": "Central",
    "district": "Gomoa East",
    "lat": 5.528026,
    "lon": -0.452498
  },
  {
    "id": "node/6935467481",
    "name": "NHIS Office Kasoa",
    "amenity": "unknown",
    "healthcare": "yes",
    "region": "Central",
    "district": "Awutu Senya East",
    "lat": 5.5323696,
    "lon": -0.4374439
  },
  {
    "id": "node/6953609643",
    "name": "Enerst Chemist",
    "amenity": "pharmacy",
    "healthcare": "unknown",
    "region": "Greater Accra",
    "district": "Weija Gbawe Municipal",
    "lat": 5.5354565,
    "lon": -0.4194051
  },
  {
    "id": "node/6950424396",
    "name": "Jucad Pharmacy",
    "amenity": "pharmacy",
    "healthcare": "unknown",
    "region": "Central",
    "district": "Awutu Senya East",
    "lat": 5.5350595,
    "lon": -0.4225436
  },
  {
    "id": "node/6950451591",
    "name": "Nhyira Pharmacy",
    "amenity": "pharmacy",
    "healthcare": "unknown",
    "region": "Central",
    "district": "Awutu Senya East",
    "lat": 5.5334698,
    "lon": -0.4295575
  },
  {
    "id": "node/6938228121",
    "name": "Justab Clinic",
    "amenity": "clinic",
    "healthcare": "unknown",
    "region": "Central",
    "district": "Awutu Senya East",
    "lat": 5.5331968,
    "lon": -0.4290605
  },
  {
    "id": "node/6953608710",
    "name": "Kasoa polyclinic",
    "amenity": "unknown",
    "healthcare": "centre",
    "region": "Central",
    "district": "Awutu Senya East",
    "lat": 5.533813,
    "lon": -0.4264284
  },
  {
    "id": "node/10284232091",
    "name": null,
    "amenity": "pharmacy",
    "healthcare": "unknown",
    "region": "Central",
    "district": "Awutu Senya East",
    "lat": 5.5341273,
    "lon": -0.4294632
  },